[
  {
    "name": " Budgewoi",
    "address": "Noela Pl & Tenth Ave, Budgewoi, NSW 2262",
    "lat": -33.2330759,
    "lng": 151.5539765
  },
  {
    "name": " Burwood",
    "address": "Wilga St & Shaftsbury Rd, Burwood, NSW 2134",
    "lat": -33.8742747,
    "lng": 151.1076885
  },
  {
    "name": " Broken Hill",
    "address": "South Rd & Galena St, Broken Hill, NSW 2880",
    "lat": -31.9647346,
    "lng": 141.4549255
  },
  {
    "name": " Albury",
    "address": "Townsend St & Smollet St, Albury, NSW 2640"
  },
  {
    "name": " Asquith",
    "address": "339 Pacific Hwy, Asquith, NSW 2077"
  },
  {
    "name": " Banora Point",
    "address": "Darlington & Leisure Drv, Banora Point, NSW 2486"
  },
  {
    "name": " Balgowlah",
    "address": "197 - 215 Condamine St, Balgowlah, NSW 2093"
  },
  {
    "name": " Amaroo",
    "address": "Horse Park Dr, Amaroo, NSW 2912"
  },
  {
    "name": " Ballina",
    "address": "Fox St & Kerr St, Ballina, NSW 2478"
  },
  {
    "name": " Ashfield",
    "address": "Liverpool Rd & Knox St, Ashfield, NSW 2131"
  },
  {
    "name": " Baulkham Hills",
    "address": "Windsor Rd & Olive St, Baulkham Hills, NSW 2153"
  },
  {
    "name": " Alstonville",
    "address": "Bruxner Hwy & Mains St, Alstonville, NSW 2477"
  },
  {
    "name": " Casino",
    "address": "Canberbury St & Hickey St, Casino, NSW 2470",
    "lat": -28.8632812,
    "lng": 153.0507476
  },
  {
    "name": " Figtree",
    "address": "Princes Hwy & The Avenue, Figtree, NSW 2525"
  },
  {
    "name": " Five Dock",
    "address": "4/12 Garfield St, Five Dock, NSW 2046"
  },
  {
    "name": " Gladesville",
    "address": "Flagstaff St & Cowell St, Gladesville, NSW 2111"
  },
  {
    "name": " Fairfield",
    "address": "Station St, Fairfield, NSW 2165"
  },
  {
    "name": " Forestville",
    "address": "Darley St & Warringah Rd, Forestville, NSW 2087"
  },
  {
    "name": " Fletcher",
    "address": "Cnr Churnwood Dr And Minmi Road, Fletcher, NSW 2287"
  },
  {
    "name": " George St",
    "address": "388 George St, Sydney, NSW 2000"
  },
  {
    "name": " Tuggeranong",
    "address": "Pitman St & Ankertell St, Tuggeranong, NSW 2900"
  },
  {
    "name": " Merrylands",
    "address": "4 Mcfarlane St, Merrylands, NSW 2160"
  },
  {
    "name": " Medowie",
    "address": "Ferodale Road & Medowie Road, Medowie, NSW 2318"
  },
  {
    "name": " Toukley",
    "address": "Yaralla St & Hargraves St, Toukley, NSW 2263"
  },
  {
    "name": " Top Ryde",
    "address": "Corner Blaxland Road & Devlin Street, Ryde, NSW 2112"
  },
  {
    "name": " Turramurra",
    "address": "1 Ray St, Turramurra, NSW 2074"
  },
  {
    "name": " Toronto",
    "address": "63 The Boulevarde, Toronto, NSW 2283"
  },
  {
    "name": " Tuggerah",
    "address": "Wyong Rd, Tuggerah, NSW 2259"
  },
  {
    "name": " Edgeworth",
    "address": "Main Rd & Callan St, Edgeworth, NSW 2285",
    "lat": -32.9240207,
    "lng": 151.623868
  },
  {
    "name": " Fairfield West",
    "address": "368 Hamilton Rd, Fairfield West, NSW 2165",
    "lat": -33.8678159,
    "lng": 150.9232977
  },
  {
    "name": " Fairy Meadow",
    "address": "Cnr Of Grafton Street And Elliott's Road, Fairy Meadow, NSW 2519",
    "lat": -34.394336,
    "lng": 150.8941685
  },
  {
    "name": " Forster",
    "address": "Breese Pde, Forster, NSW 2428",
    "lat": -32.2002271,
    "lng": 152.5220038
  },
  {
    "name": " Eden",
    "address": "163 Imlay Street, Eden, NSW 2551",
    "lat": -37.0638115,
    "lng": 149.9044558
  },
  {
    "name": " Erina",
    "address": "620 - 658 Terrigal Dve, Erina, NSW 2250",
    "lat": -33.437213,
    "lng": 151.3923773
  },
  {
    "name": " Norwood",
    "address": "166 The Parade, Norwood, SA 5067",
    "lat": -34.9219471,
    "lng": 138.6354879
  },
  {
    "name": " Parabanks",
    "address": "John Street, Salisbury, SA 5108",
    "lat": -34.7620758,
    "lng": 138.6462603
  },
  {
    "name": " East Village",
    "address": "Odea Ave, Zetland, NSW 2017",
    "lat": -33.9037251,
    "lng": 151.2096912
  },
  {
    "name": " Port Lincoln",
    "address": "Liverpool St, Port Lincoln, SA 5606",
    "lat": -34.7233464,
    "lng": 135.8614948
  },
  {
    "name": " Edgecliff",
    "address": "New South Head Rd & Ocean St, Edgecliff, NSW 2027",
    "lat": -33.8790977,
    "lng": 151.2375126
  },
  {
    "name": " Paralowie",
    "address": "Boliver Rd & Liberator Dr, Paralowie, SA 5108",
    "lat": -34.7588282,
    "lng": 138.5956296
  },
  {
    "name": " Port Augusta",
    "address": "Cnr Jervois & Marryatt Streets, Port Augusta, SA 5700",
    "lat": -32.4918459,
    "lng": 137.7643806
  },
  {
    "name": " Coffs Harbour",
    "address": "Harbour Dr & Earl St, Coffs Harbour, NSW 2450",
    "lat": -30.299331,
    "lng": 153.1191351
  },
  {
    "name": " Bathurst",
    "address": "47 William St, Bathurst, NSW 2795",
    "lat": -33.4163921,
    "lng": 149.5825121
  },
  {
    "name": " Tweed City",
    "address": "54 Minjungbal Dr, Tweed Heads South, NSW 2486"
  },
  {
    "name": " Ulladulla",
    "address": "Boree St & Vincent St, Ulladulla, NSW 2539"
  },
  {
    "name": " Umina Beach",
    "address": "4 Oscar St, Umina Beach, NSW 2257"
  },
  {
    "name": " Tweed Heads",
    "address": "Pacific Hwy & Frances St, Tweed Heads, NSW 2485"
  },
  {
    "name": " Morisset",
    "address": "35 Yambo St, Morisset, NSW 2264"
  },
  {
    "name": " Moree",
    "address": "85 Balo St, Moree, NSW 2400"
  },
  {
    "name": " Bondi Junction",
    "address": "Spring St & Newland St, Bondi Junction, NSW 2022",
    "lat": -33.8923168,
    "lng": 151.2473288
  },
  {
    "name": " Baulkham Hills",
    "address": "Norwest Boulevard, Baulkham Hills, NSW 2153",
    "lat": -33.7375177,
    "lng": 150.9571625
  },
  {
    "name": " Cooma",
    "address": "85 - 91 Commissioner St, Cooma, NSW 2630",
    "lat": -36.2357861,
    "lng": 149.1265397
  },
  {
    "name": " Belconnen",
    "address": "Benjamin Way, Belconnen, NSW 2617",
    "lat": -35.2422204,
    "lng": 149.0673336
  },
  {
    "name": " Bateau Bay",
    "address": "The Entrance Rd, Bateau Bay, NSW 2261",
    "lat": -33.3848969,
    "lng": 151.4724207
  },
  {
    "name": " Casuarina",
    "address": "482 Tweed Coast Rd, Casuarina, NSW 2487",
    "lat": -28.2969197,
    "lng": 153.5695456
  },
  {
    "name": " Airport West",
    "address": "Louis St & Dromana Ave, Airport West, VIC 3042",
    "lat": -37.71335,
    "lng": 144.8889173
  },
  {
    "name": " Birkenhead Point",
    "address": "Cary St, Drummoyne, NSW 2047",
    "lat": -33.8561977,
    "lng": 151.16157
  },
  {
    "name": " Sorell",
    "address": "12 Cole St, Sorell, TAS 7172",
    "lat": -42.7820806,
    "lng": 147.5654788
  },
  {
    "name": " Curtin",
    "address": "51 Curtin Place, Curtin, NSW 2605",
    "lat": -35.3256401,
    "lng": 149.0823831
  },
  {
    "name": " Warners Bay",
    "address": "30-32 John St, Warners Bay, NSW 2282",
    "lat": -32.9736836,
    "lng": 151.6462323
  },
  {
    "name": " Banora Central",
    "address": "Fraser Drv & Leisure Drv, Banora Point, NSW 2486",
    "lat": -28.2133366,
    "lng": 153.5227661
  },
  {
    "name": " Batemans Bay",
    "address": "Vesper St & Princes Hwy, Batemans Bay, NSW 2536",
    "lat": -35.7171283,
    "lng": 150.1763189
  },
  {
    "name": " Ardeer",
    "address": "The Avenue & Corella Rd, Sunshine West, VIC 3023",
    "lat": -37.7985086,
    "lng": 144.8051322
  },
  {
    "name": " Warrawong",
    "address": "Cowper St, Warrawong, NSW 2502",
    "lat": -34.4854083,
    "lng": 150.8867903
  },
  {
    "name": " Werribee Plaza",
    "address": "Derrimut Rd & Heaths Rd, Hoppers Crossing, VIC 3030",
    "lat": -37.8776144,
    "lng": 144.6829213
  },
  {
    "name": " Kurralta Park",
    "address": "153-164 Anzac Hwy, Kurralta Park, SA 5037"
  },
  {
    "name": " Ingle Farm Walkleys Rd",
    "address": "219 - 247 Montague Rd, Ingle Farm, SA 5098"
  },
  {
    "name": " Cambridge Gardens",
    "address": "Richmond Rd & Boomerang Pl, Cambridge Gardens, NSW 2747",
    "lat": -33.7408594,
    "lng": 150.7162801
  },
  {
    "name": " Munno Para",
    "address": "Main North Rd, Munno Para, SA 5115"
  },
  {
    "name": " Port Adelaide",
    "address": "220 Commercial Rd, Port Adelaide, SA 5015"
  },
  {
    "name": " Marion",
    "address": "297 Diagonal Rd, Oaklands Park, SA 5046"
  },
  {
    "name": " Kilkenny",
    "address": "Torrens Rd & Hanson Rd, Kilkenny, SA 5009"
  },
  {
    "name": " Canberra Civic",
    "address": "Bunda St & Petrie St, Canberra City, NSW 2601"
  },
  {
    "name": " Wagga Wagga",
    "address": "Forsyth St & Baylis St, Wagga Wagga, NSW 2650",
    "lat": -35.1140401,
    "lng": 147.3697291
  },
  {
    "name": " Bowral",
    "address": "Boolwey St & Bendooley St, Bowral, NSW 2576",
    "lat": -34.4799513,
    "lng": 150.4195771
  },
  {
    "name": " Warriewood",
    "address": "Jacksons Rd, Warriewood, NSW 2102",
    "lat": -33.697089,
    "lng": 151.2965037
  },
  {
    "name": " Blacktown",
    "address": "17 Patrick St, Blacktown, NSW 2148",
    "lat": -33.7702867,
    "lng": 150.9059341
  },
  {
    "name": " Brighton Le Sands",
    "address": "36 Princess St, Brighton Le Sands, NSW 2216",
    "lat": -33.9592671,
    "lng": 151.1540993
  },
  {
    "name": " Wendouree",
    "address": "Gillies St & Norman St, Wendouree, VIC 3355",
    "lat": -37.5343102,
    "lng": 143.8247259
  },
  {
    "name": " Mowbray",
    "address": "Cnr Invermay Rd & Joffre St, Mowbray, TAS 7248",
    "lat": -41.4046304,
    "lng": 147.1321476
  },
  {
    "name": " Bonnells Bay",
    "address": "330 Fishery Point Rd, Bonnells Bay, NSW 2264",
    "lat": -33.1102598,
    "lng": 151.5327564
  },
  {
    "name": " Castle Hill",
    "address": "Old Castle Hill Rd, Castle Hill, NSW 2154",
    "lat": -33.7274986,
    "lng": 151.008917
  },
  {
    "name": " Caringbah",
    "address": "178 - 184 Willarong Rd, Caringbah, NSW 2229",
    "lat": -34.041899,
    "lng": 151.1200729
  },
  {
    "name": " Broadway",
    "address": "Broadway St & Bay St, Broadway, NSW 2007",
    "lat": -33.8837013,
    "lng": 151.1943992
  },
  {
    "name": " Lindfield",
    "address": "376 - 384 Pacific Hwy, Lindfield, NSW 2070",
    "lat": -33.7740805,
    "lng": 151.1671374
  },
  {
    "name": " Corrimal",
    "address": "204 Princes Highway, Corrimal, NSW 2518",
    "lat": -34.3715515,
    "lng": 150.8977395
  },
  {
    "name": " North Rocks",
    "address": "318-336 North Rocks Rd, North Rocks, NSW 2151",
    "lat": -33.7689433,
    "lng": 151.0283429
  },
  {
    "name": " Park Holme",
    "address": "319 Oaklands Rd, Park Holme, SA 5043"
  },
  {
    "name": " Northpark",
    "address": "264 Main North Rd, Prospect, SA 5082",
    "lat": -34.8753857,
    "lng": 138.6010738
  },
  {
    "name": " Highfields",
    "address": "1 Plaza Cir, Highfields, QLD 4352"
  },
  {
    "name": " Hope Island",
    "address": "Santa Barbara Rd, Hope Island, QLD 4212"
  },
  {
    "name": " Belmont",
    "address": "65 High St, Belmont, VIC 3216"
  },
  {
    "name": " Ipswich Riverlink",
    "address": "The Terrace, North Ipswich, QLD 4305"
  },
  {
    "name": " Newton",
    "address": "Montacute Rd & Stradbroke Rd, Newton, SA 5074",
    "lat": -34.8861471,
    "lng": 138.6912961
  },
  {
    "name": " Ipswich",
    "address": "Cnr Brisbane St & Gordon St, Ipswich, QLD 4305"
  },
  {
    "name": " Berwick Central",
    "address": "2 Richardson Grove, Berwick, VIC 3806"
  },
  {
    "name": " Boronia",
    "address": "Floriston Rd & Chandler Rd, Boronia, VIC 3155"
  },
  {
    "name": " Barkly Square",
    "address": "Barkly Street, Brunswick, VIC 3056"
  },
  {
    "name": " Bendigo",
    "address": "Williamson St & Myer St, Bendigo, VIC 3550"
  },
  {
    "name": " Ballarat (victoria St)",
    "address": "73 Victoria St, Ballarat, VIC 3350"
  },
  {
    "name": " Braybrook",
    "address": "67 Ashley St, Braybrook, VIC 3019"
  },
  {
    "name": " Innisfail",
    "address": "Edith St & Ernest St, Innisfail, QLD 4860"
  },
  {
    "name": " Broadmeadows",
    "address": "1099 - 1169 Pascoe Vale Rd, Broadmeadows, VIC 3047"
  },
  {
    "name": " Brighton - Bay Street",
    "address": "380 Bay St, Brighton, VIC 3186"
  },
  {
    "name": " Brighton",
    "address": "26 - 34 Church St, Brighton, VIC 3186"
  },
  {
    "name": " Birallee Park",
    "address": "99 Melrose Drv, Wodonga, VIC 3690"
  },
  {
    "name": " Brandon Park",
    "address": "Ferntree Gully & Springvale Rds, Mulgrave, VIC 3170"
  },
  {
    "name": " Box Hill",
    "address": "Whitehorse Rd & Clisby Crt, Box Hill, VIC 3128"
  },
  {
    "name": " Benalla",
    "address": "45 - 49 Carrier St, Benalla, VIC 3672"
  },
  {
    "name": " Bundoora",
    "address": "Settlement Rd & Plenty Rd, Bundoora, VIC 3083"
  },
  {
    "name": " Noarlunga",
    "address": "Beach Rd, Noarlunga Centre, SA 5168",
    "lat": -35.1381854,
    "lng": 138.4955815
  },
  {
    "name": " Burnside",
    "address": "Western Hwy & Westwood Drive, Burnside, VIC 3023"
  },
  {
    "name": " Brimbank",
    "address": "Neale Rd & Station Rd, Deer Park, VIC 3021"
  },
  {
    "name": " Bentleigh",
    "address": "5-7 Vickery St, Bentleigh, VIC 3204"
  },
  {
    "name": " Hervey Bay",
    "address": "Main St, Pialba, QLD 4655",
    "lat": -25.2874835,
    "lng": 152.8382867
  },
  {
    "name": " Bulleen",
    "address": "83 Manningham Rd, Bulleen, VIC 3105"
  },
  {
    "name": " Springhill",
    "address": "Springhill Dr, Cranbourne, VIC 3977"
  },
  {
    "name": " Camden",
    "address": "Murray St & South Argyle St, Camden, NSW 2570",
    "lat": -34.0571017,
    "lng": 150.6935882
  },
  {
    "name": " Murray Bridge",
    "address": "Mannum Rd, Murray Bridge, SA 5253",
    "lat": -35.1055353,
    "lng": 139.2549128
  },
  {
    "name": " Kellyville",
    "address": "Wrights Rd & Victoria Rd, Kellyville, NSW 2155"
  },
  {
    "name": " Helensvale",
    "address": "Gold Coast Hwy & Town Centre Drv, Helensvale, QLD 4212",
    "lat": -27.9222587,
    "lng": 153.3379
  },
  {
    "name": " Moss Vale",
    "address": "7 Kirkham St, Moss Vale, NSW 2577",
    "lat": -34.5503203,
    "lng": 150.3719521
  },
  {
    "name": " Kareela",
    "address": "Bates Drv & Freya St, Kareela, NSW 2232",
    "lat": -34.0183371,
    "lng": 151.0799644
  },
  {
    "name": " Jewelstown",
    "address": "Ntaba Rd, Belmont North, NSW 2280",
    "lat": -33.0120667,
    "lng": 151.6842149
  },
  {
    "name": " St Peters",
    "address": "Cnr Payneham Rd & Nelson St, Stepney, SA 5069",
    "lat": -34.9093946,
    "lng": 138.6279875
  },
  {
    "name": " Chatswood Chase",
    "address": "345 Victoria Ave & Archer Street, Chatswood, NSW 2067",
    "lat": -33.7956043,
    "lng": 151.1853558
  },
  {
    "name": " Newport",
    "address": "381 Barrenjoey Rd, Newport, NSW 2106",
    "lat": -33.6538515,
    "lng": 151.3212375
  },
  {
    "name": " Goulburn",
    "address": "Auburn St & Clifford St, Goulburn, NSW 2580",
    "lat": -34.7529027,
    "lng": 149.7198378
  },
  {
    "name": " Grote St",
    "address": "21-39 Grote St, Adelaide, SA 5000",
    "lat": -34.9295009,
    "lng": 138.5980745
  },
  {
    "name": " Greenacres",
    "address": "Cnr Muller & Floridale Rds, Greenacres, SA 5086",
    "lat": -34.8702905,
    "lng": 138.635155
  },
  {
    "name": " Rundle Place",
    "address": "Rundle Mall, Adelaide, SA 5000",
    "lat": -34.9228338,
    "lng": 138.602669
  },
  {
    "name": " Ingle Farm",
    "address": "Montague & Walkleys Rds, Ingle Farm, SA 5098",
    "lat": -34.82733169999999,
    "lng": 138.646371
  },
  {
    "name": " Goonellabah",
    "address": "44 Oliver Avenue, Goonellabah, NSW 2480",
    "lat": -28.8223432,
    "lng": 153.3268646
  },
  {
    "name": " Newcastle",
    "address": "204 Union St, The Junction, NSW 2291",
    "lat": -32.9385158,
    "lng": 151.7584618
  },
  {
    "name": " North Richmond",
    "address": "8 - 16 Riverview St, North Richmond, NSW 2754",
    "lat": -33.5819028,
    "lng": 150.7205012
  },
  {
    "name": " Murray Bridge",
    "address": "Swanport Road & Riverview Road, Murray Bridge, SA 5253",
    "lat": -35.1216436,
    "lng": 139.2748017
  },
  {
    "name": " Gunnedah",
    "address": "80 - 98 Little Conadilly St, Gunnedah, NSW 2380",
    "lat": -30.9756664,
    "lng": 150.2523657
  },
  {
    "name": " Salisbury Downs",
    "address": "Winzor St, Salisbury Downs, SA 5108",
    "lat": -34.7642247,
    "lng": 138.6285131
  },
  {
    "name": " Mount Gambier",
    "address": "Cnr James & Elizabeth Sts, Mount Gambier, SA 5290",
    "lat": -37.8288017,
    "lng": 140.7761543
  },
  {
    "name": " Mclaren Vale",
    "address": "130 Main Rd, Mclaren Vale, SA 5171",
    "lat": -35.2171263,
    "lng": 138.5425003
  },
  {
    "name": " Mount Barker",
    "address": "Cameron St, Mount Barker, SA 5251",
    "lat": -35.0592417,
    "lng": 138.8606957
  },
  {
    "name": " Inverell",
    "address": "12 Byron St, Inverell, NSW 2360",
    "lat": -29.7738197,
    "lng": 151.1101925
  },
  {
    "name": " Green Point",
    "address": "Avoca Drv & Sun Valley Rd, Green Point, NSW 2251",
    "lat": -33.4464703,
    "lng": 151.3732915
  },
  {
    "name": " Lisarow",
    "address": "11 Parsons Rd, Lisarow, NSW 2250",
    "lat": -33.3859675,
    "lng": 151.3661307
  },
  {
    "name": " Macquarie Fields",
    "address": "Victoria Rd & Harold St, Macquarie Fields, NSW 2564",
    "lat": -33.9854296,
    "lng": 150.8919629
  },
  {
    "name": " Macquarie Centre",
    "address": "197 - 223 Herring Road (macquarie Centre), Macquarie Park, NSW 2113",
    "lat": -33.7768811,
    "lng": 151.1202818
  },
  {
    "name": " Lithgow",
    "address": "Lithgow St & Bent St, Lithgow, NSW 2790",
    "lat": -33.4850283,
    "lng": 150.1531788
  },
  {
    "name": " Lismore",
    "address": "Mckenzie St, Lismore, NSW 2480",
    "lat": -28.8116665,
    "lng": 153.291341
  },
  {
    "name": " Liverpool Westfield",
    "address": "Northumberland St & Elizabeth St, Liverpool, NSW 2170",
    "lat": -33.9199461,
    "lng": 150.9229431
  },
  {
    "name": " Roselands",
    "address": "Roselands Drv, Roselands, NSW 2196",
    "lat": -33.9364775,
    "lng": 151.0712546
  },
  {
    "name": " Ropes Crossing",
    "address": "8 Central Place, Ropes Crossing, NSW 2760",
    "lat": -33.7326466,
    "lng": 150.7818146
  },
  {
    "name": " Cowra",
    "address": "Kendall St & Macquarie St, Cowra, NSW 2794",
    "lat": -33.8343196,
    "lng": 148.6887127
  },
  {
    "name": " Richmond",
    "address": "271 - 281 Windsor St, Richmond, NSW 2753",
    "lat": -33.5957025,
    "lng": 150.7494272
  },
  {
    "name": " Randwick",
    "address": "148 Belmore Rd, Randwick, NSW 2031"
  },
  {
    "name": " Ingleburn",
    "address": "100 Macquarie Road, Ingleburn, NSW 2565",
    "lat": -33.9966514,
    "lng": 150.8666602
  },
  {
    "name": " Ramsgate",
    "address": "277 The Grand Parade, Ramsgate, NSW 2217"
  },
  {
    "name": " Queanbeyan",
    "address": "131 Monaro St, Queanbeyan, NSW 2620"
  },
  {
    "name": " Stanhope Gardens",
    "address": "Stanhope Pkwy & Sentry Drv, Stanhope Gardens, NSW 2768"
  },
  {
    "name": " Illawong",
    "address": "Fowler Rd, Illawong, NSW 2234",
    "lat": -33.9980213,
    "lng": 151.0440125
  },
  {
    "name": " Pyrmont",
    "address": "Union St & Edward St, Pyrmont, NSW 2009"
  },
  {
    "name": " Rose Bay",
    "address": "694 Old South Head Rd, Rose Bay North, NSW 2030",
    "lat": -33.8657966,
    "lng": 151.2780722
  },
  {
    "name": " Kaleen",
    "address": "1 Maribyrnong Ave, Kaleen Plaza, NSW 2617",
    "lat": -35.2202787,
    "lng": 149.1028228
  },
  {
    "name": " Dapto",
    "address": "75 - 87 Princes Hwy, Dapto, NSW 2530",
    "lat": -34.494877,
    "lng": 150.7951681
  },
  {
    "name": " St Marys",
    "address": "15 Station St, St Marys, NSW 2760"
  },
  {
    "name": " Chisholm",
    "address": "42 Halley St, Chisholm, NSW 2905"
  },
  {
    "name": " Green Valley",
    "address": "195 Wilson Road, Green Valley, NSW 2168"
  },
  {
    "name": " Hurstville Station",
    "address": "225 Forest Rd, Hurstville, NSW 2220",
    "lat": -33.967382,
    "lng": 151.1026357
  },
  {
    "name": " Bray Park",
    "address": "Kensington Ave & Soverign Way, Strathpine, QLD 4500"
  },
  {
    "name": " Aspley",
    "address": "591 Robinson Rd, Aspley, QLD 4034"
  },
  {
    "name": " Ayr",
    "address": "118 Edward St, Ayr, QLD 4807"
  },
  {
    "name": " Australia Fair",
    "address": "223-225 Scarborough St, Southport, QLD 4215"
  },
  {
    "name": " Casuarina",
    "address": "Dripstone Rd & Trower Rd, Casuarina, NT 0810"
  },
  {
    "name": " Cannonvale",
    "address": "Shute Harbour Rd & Island Dr, Cannonvale, QLD 4802"
  },
  {
    "name": " Bellbowrie",
    "address": "Birkin Rd & Moggill Rd, Bellbowrie, QLD 4070"
  },
  {
    "name": " Aspley",
    "address": "59 Albany Creek Rd, Aspley, QLD 4034"
  },
  {
    "name": " Benowa",
    "address": "Benowa Rd & Ashmore Rd, Benowa, QLD 4217"
  },
  {
    "name": " Beenleigh",
    "address": "Main St & Bellew St, Beenleigh, QLD 4207"
  },
  {
    "name": " Browns Plains",
    "address": "Mt Lindesay Hwy & Browns Plains Rd, Browns Plains, QLD 4118"
  },
  {
    "name": " Beaudesert",
    "address": "Anna St & William St, Beaudesert, QLD 4285"
  },
  {
    "name": " Brisbane Myer Express",
    "address": "Level E Elizabeth St, Brisbane, QLD 4000"
  },
  {
    "name": " Burpengary",
    "address": "164 - 168 Station Rd, Burpengary, QLD 4505"
  },
  {
    "name": " Caboolture",
    "address": "60 King St, Caboolture, QLD 4510"
  },
  {
    "name": " Benowa Village",
    "address": "11 Ross Street, Benowa, QLD 4217"
  },
  {
    "name": " Bushland Beach",
    "address": "Cnr Mt Low Parkway & Lionel Turner Drive, Bushland Beach, QLD 4818"
  },
  {
    "name": " Bay Central",
    "address": "6 Central Ave, Hervey Bay, QLD 4655"
  },
  {
    "name": " Manly Vale",
    "address": "12 - 14 Koorala St, Manly Vale, NSW 2093"
  },
  {
    "name": " Manly Corso",
    "address": "8-28 The Corso, Manly, NSW 2095"
  },
  {
    "name": " Bracken Ridge",
    "address": "Telegraph Rd & Norris Rd, Bracken Ridge, QLD 4017"
  },
  {
    "name": " Manly Peninsula",
    "address": "Wentworth St & Darley Rd, Manly, NSW 2095"
  },
  {
    "name": " Belmont (high Street)",
    "address": "158 - 162a High St, Belmont, VIC 3215",
    "lat": -38.1736761,
    "lng": 144.343043
  },
  {
    "name": " Manuka",
    "address": "Franklin Street & Flinders Way, Griffith, NSW 2603"
  },
  {
    "name": " Glen Innes",
    "address": "357 Grey St, Glen Innes, NSW 2370",
    "lat": -29.7360367,
    "lng": 151.7361596
  },
  {
    "name": " Marketown",
    "address": "King St & National Park St, Newcastle West, NSW 2302"
  },
  {
    "name": " Ulverstone",
    "address": "16 Reiby St, Ulverstone, TAS 7315",
    "lat": -41.15755,
    "lng": 146.1703572
  },
  {
    "name": " Maroubra Junction",
    "address": "737 Anzac Parade, Maroubra, NSW 2035"
  },
  {
    "name": " Glenmore Park",
    "address": "Glenmore Park Shopping Centre, Glenmore Parkway, NSW 2745",
    "lat": -33.7874604,
    "lng": 150.668641
  },
  {
    "name": " Glenfield Park",
    "address": "Dalma Pkwy & Pinaroo Drv, Glenfield Park, NSW 2650",
    "lat": -35.1372633,
    "lng": 147.3322458
  },
  {
    "name": " Clemton Park",
    "address": "Cnr Charlotte & Harp Street, Clemton Park, NSW 2194",
    "lat": -33.9224348,
    "lng": 151.1029284
  },
  {
    "name": " Bayswater",
    "address": "7 - 13 High Street, Bayswater, VIC 3153"
  },
  {
    "name": " Ballarat (peel St)",
    "address": "6-20 Peel St, Ballarat, VIC 3350"
  },
  {
    "name": " Palmerston",
    "address": "Temple Tce & Chung Wah Tce, Palmerston, NT 0830"
  },
  {
    "name": " Oasis (palmerston)",
    "address": "Corner Temple & Chung Wah Terrace, Palmerston, NT 0830"
  },
  {
    "name": " Cardinia Lakes",
    "address": "Winderemere Boulevard, Pakenham, VIC 3810"
  },
  {
    "name": " Northlakes",
    "address": "Links Rd & Mcmillans Rd, Marrara, NT 0812"
  },
  {
    "name": " Balwyn East",
    "address": "342 - 344 Belmore Rd, Balwyn East, VIC 3129"
  },
  {
    "name": " Balwyn North",
    "address": "1-9 Doncaster Rd, Balwyn North, VIC 3104"
  },
  {
    "name": " Dubbo",
    "address": "Macquarie St & Bultje St, Dubbo, NSW 2830",
    "lat": -32.2512345,
    "lng": 148.6038348
  },
  {
    "name": " Edensor Park",
    "address": "Edensor Rd & Allambie Rd, Edensor Park, NSW 2176",
    "lat": -33.8761895,
    "lng": 150.876839
  },
  {
    "name": " Banksia Grove",
    "address": "Corner Joondalup Drive & Joseph Banks Boulevard, Banksia Grove, WA 6031"
  },
  {
    "name": " Balcatta",
    "address": "Wanneroo Rd & Amelia St, Balcatta, WA 6021"
  },
  {
    "name": " Glendale",
    "address": "Lake Rd & Stockland Drv, Glendale, NSW 2285",
    "lat": -32.9321062,
    "lng": 151.6395651
  },
  {
    "name": " Sale",
    "address": "Cunninghame St & Reeves St, Sale, VIC 3850"
  },
  {
    "name": " Riverside Plaza Kialla",
    "address": "Goulburn Valley Hwy & Riverview Dr, Kialla, VIC 3631"
  },
  {
    "name": " Rosebud",
    "address": "Boneo Rd & Mccombe St, Rosebud, VIC 3939"
  },
  {
    "name": " Doonside",
    "address": "Richmond Rd & Woodcroft Drv, Doonside, NSW 2767",
    "lat": -33.7473104,
    "lng": 150.8797674
  },
  {
    "name": " Dee Why",
    "address": "26 Howard Ave, Dee Why, NSW 2099"
  },
  {
    "name": " Engadine",
    "address": "18 - 26 Waratah Rd, Engadine, NSW 2233"
  },
  {
    "name": " Deniliquin",
    "address": "Hardinge St & Wood St, Deniliquin, NSW 2710",
    "lat": -35.5317867,
    "lng": 144.9536796
  },
  {
    "name": " Roxburgh Park",
    "address": "Somerton Rd, Roxburgh Park, VIC 3064"
  },
  {
    "name": " Epping",
    "address": "53 - 57 Rawson St, Epping, NSW 2121"
  },
  {
    "name": " West Ryde",
    "address": "Chatham Rd & Betts St, West Ryde, NSW 2114"
  },
  {
    "name": " Wetherill Park",
    "address": "561-563 Polding Street, Wetherill Park, NSW 2164"
  },
  {
    "name": " Westmead",
    "address": "29 - 33 Darcy Road, Westmead, NSW 2145"
  },
  {
    "name": " Aurora Village",
    "address": "315a Harvest Home Road, Epping North, VIC 3076",
    "lat": -37.6209314,
    "lng": 145.0063542
  },
  {
    "name": " Campbelltown",
    "address": "271-281 Queen St, Campbelltown, NSW 2560",
    "lat": -34.0688552,
    "lng": 150.8108865
  },
  {
    "name": " Spencer St",
    "address": "201 Spencer St, Melbourne, VIC 3000",
    "lat": -37.8163331,
    "lng": 144.9528143
  },
  {
    "name": " Flinders Square",
    "address": "Flinders St & Wiluna St, Yokine, WA 6060",
    "lat": -31.9104923,
    "lng": 115.8491037
  },
  {
    "name": " Springvale",
    "address": "825 Dandenong Rd, Springvale, VIC 3171",
    "lat": -37.9346338,
    "lng": 145.1567086
  },
  {
    "name": " Bunbury Centrepoint",
    "address": "Blair St & Stephen St, Bunbury, WA 6230",
    "lat": -33.3255604,
    "lng": 115.6402349
  },
  {
    "name": " Earlwood",
    "address": "5 - 15 Clarke St, Earlwood, NSW 2206",
    "lat": -33.9259062,
    "lng": 151.1237763
  },
  {
    "name": " Erskine",
    "address": "36 Wattleglen Ave, Erskine, WA 6210",
    "lat": -32.5614796,
    "lng": 115.6895459
  },
  {
    "name": " St Kilda",
    "address": "183 - 187 Barkly St, St Kilda, VIC 3182",
    "lat": -37.8687783,
    "lng": 144.9806918
  },
  {
    "name": " Beeliar",
    "address": "8 Durnin Avenue, Beeliar, WA 6164",
    "lat": -32.1282449,
    "lng": 115.7978267
  },
  {
    "name": " Beldon",
    "address": "Ocean Reef Road, Beldon, WA 6027",
    "lat": -31.7704103,
    "lng": 115.7686011
  },
  {
    "name": " Lakelands",
    "address": "49 Banksiadale Gate, Lakelands, WA 6180"
  },
  {
    "name": " Mandurah Forum",
    "address": "Fremantle Rd & Pinjarra Rd, Mandurah, WA 6210"
  },
  {
    "name": " Maddington",
    "address": "Olga Rd & Attfield St, Maddington, WA 6109"
  },
  {
    "name": " Swan Hill",
    "address": "Beveridge St & Mccrae St, Swan Hill, VIC 3585",
    "lat": -35.3404985,
    "lng": 143.5574806
  },
  {
    "name": " Arundel",
    "address": "Daintree Dr & Napper Rd, Arundel, QLD 4214",
    "lat": -27.947015,
    "lng": 153.3506387
  },
  {
    "name": " Belmont Forum",
    "address": "227 Belmont Avenue, Cloverdale, WA 6105",
    "lat": -31.9645992,
    "lng": 115.9355059
  },
  {
    "name": " Manjimup",
    "address": "Rose St & Ipsen St, Manjimup, WA 6258"
  },
  {
    "name": " Ashgrove",
    "address": "17 Stewart Rd, Ashgrove, QLD 4060",
    "lat": -27.4441835,
    "lng": 152.9920401
  },
  {
    "name": " Eaton Fair",
    "address": "Corner Eaton Drive & Recreation Drive, Eaton, WA 6232",
    "lat": -33.3193211,
    "lng": 115.7146508
  },
  {
    "name": " Ellenbrook",
    "address": "11 Main St, Ellenbrook, WA 6069",
    "lat": -31.7823339,
    "lng": 115.9705566
  },
  {
    "name": " Claremont",
    "address": "Claras Lane & Gugeri St, Claremont, WA 6010",
    "lat": -31.9822011,
    "lng": 115.7791501
  },
  {
    "name": " Sandringham",
    "address": "Cnr Waltham & Abbott Sts, Sandringham, VIC 3191"
  },
  {
    "name": " Sebastopol",
    "address": "210 Albert St, Sebastopol, VIC 3356"
  },
  {
    "name": " Sunbury",
    "address": "Evans St & Riddell Rd, Sunbury, VIC 3429",
    "lat": -37.5780177,
    "lng": 144.7295423
  },
  {
    "name": " Southland",
    "address": "1239 Nepean Hwy, Cheltenham, VIC 3192"
  },
  {
    "name": " Dianella",
    "address": "Alexander Drive, Dianella, WA 6059",
    "lat": -31.8886601,
    "lng": 115.872012
  },
  {
    "name": " South Melbourne",
    "address": "229 Coventry St, South Melbourne, VIC 3205"
  },
  {
    "name": " Green Hills",
    "address": "Mitchell Drv & Molly Morgan Drv, Green Hills, NSW 2323"
  },
  {
    "name": " Tarneit Central",
    "address": "Corner Leakes Rd & Derrimut Rd, Tarneit, VIC 3029",
    "lat": -37.8344252,
    "lng": 144.6911489
  },
  {
    "name": " Shepparton",
    "address": "Cnr Vaughan St & Maude St, Shepparton, VIC 3630"
  },
  {
    "name": " Seymour",
    "address": "Tallarook St, Seymour, VIC 3660"
  },
  {
    "name": " Showgrounds Village",
    "address": "320 Epsom Rd, Flemington, VIC 3031"
  },
  {
    "name": " Dunsborough",
    "address": "Dunn Bay Rd & Cape Naturaliste Rds, Dunsborough, WA 6281",
    "lat": -33.6156744,
    "lng": 115.1052165
  },
  {
    "name": " Grafton",
    "address": "Fitzroy St & Villiers St, Grafton, NSW 2460"
  },
  {
    "name": " Wallsend",
    "address": "Cowper St, Wallsend, NSW 2287",
    "lat": -32.9027536,
    "lng": 151.6703946
  },
  {
    "name": " Oatley West",
    "address": "47 Mulga Rd, Oatley, NSW 2223",
    "lat": -33.9806361,
    "lng": 151.0761526
  },
  {
    "name": " Waratah",
    "address": "Turton Rd & Georgetown Rd, Waratah, NSW 2298",
    "lat": -32.9068209,
    "lng": 151.7274876
  },
  {
    "name": " Arana Hills",
    "address": "Patricks Rd & Dawson Pde, Arana Hills, QLD 4054",
    "lat": -27.3977952,
    "lng": 152.961044
  },
  {
    "name": " Warringah",
    "address": "Pittwater Rd & Cross St, Brookvale, NSW 2100",
    "lat": -33.7660999,
    "lng": 151.2696864
  },
  {
    "name": " Wanniassa",
    "address": "12 Sangster Pl, Wanniassa, NSW 2903",
    "lat": -35.3911856,
    "lng": 149.0854898
  },
  {
    "name": " Concord",
    "address": "48 - 62 Majors Bay Rd, Concord, NSW 2137",
    "lat": -33.8570964,
    "lng": 151.1028935
  },
  {
    "name": " Darwin",
    "address": "Mitchell St & Knuckey St, Darwin, NT 0800",
    "lat": -12.463965,
    "lng": 130.840676
  },
  {
    "name": " Coolalinga",
    "address": "405 Stuart Hwy, Coolalinga, NT 0835",
    "lat": -12.5222036,
    "lng": 131.0403045
  },
  {
    "name": " Vincentia",
    "address": "29 The Wool Rd, Vincentia, NSW 2540",
    "lat": -35.0699044,
    "lng": 150.671931
  },
  {
    "name": " Wadalba",
    "address": "Figtree Blvd & Orchid Way, Wadalba, NSW 2259",
    "lat": -33.2642717,
    "lng": 151.4647701
  },
  {
    "name": " Brighton",
    "address": "6 Kingsbridge Blvd, Butler, WA 6032",
    "lat": -31.64987189999999,
    "lng": 115.6977876
  },
  {
    "name": " Forrestfield",
    "address": "20 Strelitzia Ave, Forrestfield, WA 6058"
  },
  {
    "name": " Tumut",
    "address": "29 - 39 Russell St, Tumut, NSW 2720",
    "lat": -35.3005333,
    "lng": 148.2214326
  },
  {
    "name": " Thirroul",
    "address": "282 Lawrence Hargrave Drive, Thirroul, NSW 2515",
    "lat": -34.3155945,
    "lng": 150.9213714
  },
  {
    "name": " Thornton",
    "address": "Taylor Ave & Thomas Cooke Dve, Thornton, NSW 2322",
    "lat": -32.7769082,
    "lng": 151.6388063
  },
  {
    "name": " Toormina",
    "address": "Toormina Rd & Minorie Dr, Toormina, NSW 2452",
    "lat": -30.3550696,
    "lng": 153.090186
  },
  {
    "name": " Nowra",
    "address": "Kinghorne St & Junction St, Nowra, NSW 2541",
    "lat": -34.87466940000001,
    "lng": 150.6030619
  },
  {
    "name": " Scarborough",
    "address": "West Coast Hwy & Scarborough Beach Rd, Scarborough, WA 6019"
  },
  {
    "name": " South Perth",
    "address": "Angelo St & Anstey St, South Perth, WA 6151"
  },
  {
    "name": " South Lake",
    "address": "North Lake Rd & Omeo St, South Lake, WA 6164"
  },
  {
    "name": " Secret Harbour",
    "address": "Secret Harbour Boulevard, Secret Harbour, WA 6173"
  },
  {
    "name": " Wellington",
    "address": "128 - 140 Percy St, Wellington, NSW 2820",
    "lat": -32.5544288,
    "lng": 148.9430683
  },
  {
    "name": " Southern River",
    "address": "Ranford Rd & Bristle Ave, Southern River, WA 6110"
  },
  {
    "name": " Rockingham",
    "address": "Read St & Council Ave, Rockingham, WA 6168"
  },
  {
    "name": " South Hedland",
    "address": "Colebatch Way & Rason Crt, South Hedland, WA 6722"
  },
  {
    "name": " South Bunbury",
    "address": "22 Hammersley Dr, Bunbury South, WA 6230"
  },
  {
    "name": " Floreat",
    "address": "1 Howtree Place, Floreat Park, WA 6014",
    "lat": -31.9379919,
    "lng": 115.7906345
  },
  {
    "name": " North Sydney",
    "address": "99 Walker St, North Sydney, NSW 2055",
    "lat": -33.8393362,
    "lng": 151.2090148
  },
  {
    "name": " Wattle Grove",
    "address": "Australis Ave & Village Way, Wattle Grove, NSW 2173",
    "lat": -33.954564,
    "lng": 150.944091
  },
  {
    "name": " Narromine",
    "address": "Dandaloo St, Narromine, NSW 2821",
    "lat": -32.2360017,
    "lng": 148.2388885
  },
  {
    "name": " Waterloo",
    "address": "1 Crystal St, Waterloo, NSW 2017",
    "lat": -33.8974993,
    "lng": 151.213295
  },
  {
    "name": " Neutral Bay",
    "address": "116 Military Rd, Neutral Bay, NSW 2089",
    "lat": -33.8295482,
    "lng": 151.2184821
  },
  {
    "name": " Narellan",
    "address": "326 Camden Valley Way, Narellan, NSW 2567",
    "lat": -34.0413803,
    "lng": 150.7362937
  },
  {
    "name": " World Square",
    "address": "650 George St, Sydney, NSW 2000",
    "lat": -33.8769277,
    "lng": 151.2066559
  },
  {
    "name": " Narrabri",
    "address": "154 Maitland St, Narrabri, NSW 2390",
    "lat": -30.3240158,
    "lng": 149.7827169
  },
  {
    "name": " Narrandera",
    "address": "101 - 103 East St, Narrandera, NSW 2700",
    "lat": -34.7454855,
    "lng": 146.5540825
  },
  {
    "name": " Forest Lakes",
    "address": "Forest Lakes Dr & Murdoch Rd, Thornlie, WA 6108",
    "lat": -32.0691245,
    "lng": 115.9500248
  },
  {
    "name": " Bondi Westfield",
    "address": "500 Oxford Street, Bondi Junction, NSW 2022",
    "lat": -33.89141499999999,
    "lng": 151.2508156
  },
  {
    "name": " Wynyard Express",
    "address": "Wynyard St & Carrington St, Sydney, NSW 2000",
    "lat": -33.8670396,
    "lng": 151.2062358
  },
  {
    "name": " Forest Lake",
    "address": "235 Forest Lake Bvd, Forest Lake, QLD 4078",
    "lat": -27.6254923,
    "lng": 152.9682213
  },
  {
    "name": " Edmonton",
    "address": "Walker Rd, Edmonton, QLD 4869",
    "lat": -17.0166969,
    "lng": 145.72308
  },
  {
    "name": " Fairfield",
    "address": "Fairfield Rd & Brougham St, Fairfield, QLD 4103",
    "lat": -27.508059,
    "lng": 153.024887
  },
  {
    "name": " Deeragun",
    "address": "Bruce Hwy, Deeragun, QLD 4818",
    "lat": -19.244183,
    "lng": 146.6739343
  },
  {
    "name": " Emerald",
    "address": "Clermont St & Opal St, Emerald, QLD 4720",
    "lat": -23.5281035,
    "lng": 148.1630059
  },
  {
    "name": " Chittaway Point",
    "address": "Chittaway Rd & Wyong Rd, Chittaway Point, NSW 2259",
    "lat": -33.3282918,
    "lng": 151.4285174
  },
  {
    "name": " Griffith",
    "address": "Yambil St & Crossing St, Griffith, NSW 2680",
    "lat": -34.2904579,
    "lng": 146.05528
  },
  {
    "name": " Greenacre",
    "address": "13-19 Boronia Rd (near Waterloo Rd), Greenacre, NSW 2190",
    "lat": -33.906258,
    "lng": 151.0561219
  },
  {
    "name": " Earlville",
    "address": "537 Mulgrave Rd, Earlville, QLD 4870",
    "lat": -16.944205,
    "lng": 145.7398412
  },
  {
    "name": " Chipping Norton",
    "address": "20 Ernest Ave, Chipping Norton, NSW 2170",
    "lat": -33.914691,
    "lng": 150.9621901
  },
  {
    "name": " Carlingford",
    "address": "Pennant Hills Rd & Carlingford Rd, Carlingford, NSW 2118",
    "lat": -33.7777204,
    "lng": 151.0518224
  },
  {
    "name": " Gisborne",
    "address": "Robertson St & Aitken St, Gisborne, VIC 3437",
    "lat": -37.4858282,
    "lng": 144.5913453
  },
  {
    "name": " Chatswood",
    "address": "Victor St, Chatswood, NSW 2067",
    "lat": -33.7983112,
    "lng": 151.1829852
  },
  {
    "name": " Casey Central",
    "address": "Narre Warren - Cranbourne Rd, Narre Warren, VIC 3977",
    "lat": -38.0711832,
    "lng": 145.2980299
  },
  {
    "name": " Geelong",
    "address": "Moorabool St & Brougham St, Geelong, VIC 3220",
    "lat": -38.145259,
    "lng": 144.361677
  },
  {
    "name": " Geelong West",
    "address": "166 - 188 Shannon Ave, Geelong West, VIC 3218",
    "lat": -38.1390791,
    "lng": 144.3373216
  },
  {
    "name": " Lilydale Village",
    "address": "Castella St & Maroondah Hwy, Lilydale, VIC 3140"
  },
  {
    "name": " Greenslopes",
    "address": "700 Logan Rd, Greenslopes, QLD 4120",
    "lat": -27.5125127,
    "lng": 153.0537653
  },
  {
    "name": " Lalor Plaza",
    "address": "Mckimmies Rd & Darebin Dr, Lalor, VIC 3075"
  },
  {
    "name": " Drysdale",
    "address": "Murradoc Rd, Drysdale, VIC 3222",
    "lat": -38.1778913,
    "lng": 144.6102291
  },
  {
    "name": " Everton Park",
    "address": "751 Stafford Rd, Everton Park, QLD 4053",
    "lat": -27.4062964,
    "lng": 152.9926925
  },
  {
    "name": " Morwell",
    "address": "82 George St, Morwell, VIC 3840"
  },
  {
    "name": " Mccrae",
    "address": "Nepean Hwy & Lonsdale St, Mccrae, VIC 3939"
  },
  {
    "name": " Melbourne Cbd",
    "address": "Elizabeth St & Flinders St, Melbourne, VIC 3000"
  },
  {
    "name": " Mcivor Rd",
    "address": "Mcivor Hwy & Michael St, East Bendigo, VIC 3550"
  },
  {
    "name": " Midvalley",
    "address": "Princes Hwy & Mid Valley Rd, Morwell, VIC 3840"
  },
  {
    "name": " Mentone",
    "address": "Mentone Pde & Brindisi St, Mentone, VIC 3194"
  },
  {
    "name": " Lalor",
    "address": "47-71 May Rd, Lalor, VIC 3075"
  },
  {
    "name": " Knox (kauto End)",
    "address": "Burwood Hwy & Stud Rd, Wantirna South, VIC 3152"
  },
  {
    "name": " Melton South (station Square)",
    "address": "11 - 25 Station Rd, Melton South, VIC 3338"
  },
  {
    "name": " Eastland",
    "address": "Maroondah Hwy & Warrandyte Rd, Ringwood, VIC 3134",
    "lat": -37.8145928,
    "lng": 145.2310122
  },
  {
    "name": " Northcote",
    "address": "Separation St (dennis Street), Northcote, VIC 3070"
  },
  {
    "name": " Manor Lakes",
    "address": "8 Manor Lakes Blvd, Wyndham Vale, VIC 3024"
  },
  {
    "name": " St Clair",
    "address": "Cheltenham Pde, St Clair, SA 5011"
  },
  {
    "name": " Melbourne Central",
    "address": "211 Latrobe St, Melbourne, VIC 3000"
  },
  {
    "name": " Lavington",
    "address": "Griffith Rd & Urana Rd, Lavington, NSW 2641",
    "lat": -36.0510664,
    "lng": 146.932558
  },
  {
    "name": " West Lakes",
    "address": "West Lakes Blv, West Lakes, SA 5021"
  },
  {
    "name": " Ferny Grove",
    "address": "45-47 Mcginn Road, Ferny Grove, QLD 4055",
    "lat": -27.4048021,
    "lng": 152.9313027
  },
  {
    "name": " Belmont",
    "address": "Macquarie St & Edgar St, Belmont, NSW 2280",
    "lat": -33.035911,
    "lng": 151.6587183
  },
  {
    "name": " West End",
    "address": "Mollison St & Boundary Rd, West End, QLD 4101"
  },
  {
    "name": " Westcourt",
    "address": "274 Mulgrave Rd, Cairns, QLD 4870"
  },
  {
    "name": " Wilsonton",
    "address": "Hooper St, Wilsonton, QLD 4350"
  },
  {
    "name": " Wynnum",
    "address": "132-140 Florence St, Wynnum, QLD 4178"
  },
  {
    "name": " Worongary",
    "address": "1 Mudgeeraba Rd, Worongary, QLD 4213"
  },
  {
    "name": " Wynnum West",
    "address": "Wynnum Rd, Wynnum West, QLD 4178"
  },
  {
    "name": " Woolloongabba",
    "address": "795 Stanley St, Woolloongabba, QLD 4102"
  },
  {
    "name": " Waterford",
    "address": "Kingston Rd & Tygum Rd, Waterford, QLD 4133"
  },
  {
    "name": " Casula",
    "address": "Kurrajong Rd, Casula, NSW 2170",
    "lat": -33.9452107,
    "lng": 150.8892118
  },
  {
    "name": " Gawler",
    "address": "Cnr Murray & Cowan Sts, Gawler, SA 5118",
    "lat": -34.5961188,
    "lng": 138.7490604
  },
  {
    "name": " Oakleigh",
    "address": "Hanover St & Portman St, Oakleigh, VIC 3166"
  },
  {
    "name": " Pakenham",
    "address": "67 - 69 Main Street, Pakenham, VIC 3810"
  },
  {
    "name": " Northpoint",
    "address": "72 - 80 Hopkins Hwy, Warrnambool North, VIC 3280"
  },
  {
    "name": " Sippy Downs",
    "address": "107 Sippy Downs Drive, Sippy Downs, QLD 4556"
  },
  {
    "name": " Upper Mount Gravatt",
    "address": "1932 Logan Rd, Upper Mount Gravatt, QLD 4122"
  },
  {
    "name": " Torquay",
    "address": "41 Bristol Road, Torquay, VIC 3228"
  },
  {
    "name": " Tooronga",
    "address": "Cnr Tooronga Rd & Toorak Rd, Glen Iris, VIC 3146"
  },
  {
    "name": " Tarneit West",
    "address": "Tarneit Rd & Hogans Rd, Tarneit West, VIC 3029"
  },
  {
    "name": " Upper Coomera",
    "address": "Tamborine Oxenford Rd & Reserve Rd, Upper Coomera, QLD 4210"
  },
  {
    "name": " Glenelg",
    "address": "4 Nile St, Glenelg, SA 5045",
    "lat": -34.9793574,
    "lng": 138.5155544
  },
  {
    "name": " Miranda",
    "address": "600 Kingsway, Miranda, NSW 2228",
    "lat": -34.0351627,
    "lng": 151.1004069
  },
  {
    "name": " Macarthur Square",
    "address": "Corner Of Gilchrist And Kellicar Road, Campbelltown, NSW 2560",
    "lat": -34.0737144,
    "lng": 150.8004828
  },
  {
    "name": " Berowra",
    "address": "1 Turner Rd, Berowra Heights, NSW 2082",
    "lat": -33.6130774,
    "lng": 151.1383415
  },
  {
    "name": " Miranda",
    "address": "1-13 Wandella St, Miranda, NSW 2228",
    "lat": -34.0319623,
    "lng": 151.0999089
  },
  {
    "name": " Smithfield",
    "address": "Captain Cook Hwy & Kennedy Hwy, Smithfield, QLD 4878"
  },
  {
    "name": " Taylors Hill",
    "address": "Gourlay Rd & Hume Dr, Taylors Hill, VIC 3037"
  },
  {
    "name": " Victoria Point",
    "address": "Cnr Bunker Rd & Redland Bay Rd, Victoria Point, QLD 4165"
  },
  {
    "name": " Toowoomba",
    "address": "Margaret St & Clifford St, Toowoomba City, QLD 4350"
  },
  {
    "name": " Uni Hill",
    "address": "224 Plenty Rd, Bundoora, VIC 3083"
  },
  {
    "name": " Victoria Gardens",
    "address": "Victoria St & Burnley St, Richmond, VIC 3121"
  },
  {
    "name": " Union Square",
    "address": "190 Union St, Brunswick, VIC 3055"
  },
  {
    "name": " Vermont South",
    "address": "Burwood Hwy & Hanover Rd, Vermont South, VIC 3133"
  },
  {
    "name": " Tunstall Square",
    "address": "Doncaster Rd & Tunstall Rd, Donvale, VIC 3111"
  },
  {
    "name": " Phoenix Park",
    "address": "260 Rockingham Rd, Spearwood, WA 6163",
    "lat": -32.0970818,
    "lng": 115.7827557
  },
  {
    "name": " Springfield",
    "address": "Springfield Pkwy & Topaz Rd, Springfield, QLD 4300"
  },
  {
    "name": " Wangaratta",
    "address": "Ryley St & Greta Rd, Wangaratta, VIC 3677"
  },
  {
    "name": " Toowong",
    "address": "Sherwood Rd, Toowong, QLD 4066"
  },
  {
    "name": " Port Melbourne",
    "address": "Bay & Liardet Streets, Port Melbourne, VIC 3207"
  },
  {
    "name": " Village Lakeside",
    "address": "Princes Hwy & Lakeside Blv, Pakenham, VIC 3810"
  },
  {
    "name": " Carrum Downs",
    "address": "335 Ballarto Rd, Carrum Downs, VIC 3201",
    "lat": -38.1160086,
    "lng": 145.1930009
  },
  {
    "name": " Mona Vale",
    "address": "10 Park St, Mona Vale, NSW 2103",
    "lat": -33.6759177,
    "lng": 151.3053635
  },
  {
    "name": " Warringal Mall",
    "address": "Burgundy St & Rosanna Rd, Heidelberg, VIC 3084"
  },
  {
    "name": " Moonee Beach",
    "address": "Pacific Hwy & Moonee Beach Rd, Moonee Beach, NSW 2450",
    "lat": -30.2057092,
    "lng": 153.1487925
  },
  {
    "name": " Clyde North",
    "address": "Berwick Cranbourne Rd, Clyde North, VIC 3977",
    "lat": -38.0977136,
    "lng": 145.3312442
  },
  {
    "name": " Burwood East",
    "address": "Burwood Hwy & Blackburn Rd, Burwood East, VIC 3151"
  },
  {
    "name": " Coburg",
    "address": "Victoria St & Waterfield St, Coburg, VIC 3058",
    "lat": -37.7430568,
    "lng": 144.9649811
  },
  {
    "name": " Riverton",
    "address": "353-361 High Road, Parkwood, WA 6147",
    "lat": -32.0392199,
    "lng": 115.9073005
  },
  {
    "name": " Coburg",
    "address": "451-459 Sydney Rd, Coburg, VIC 3058"
  },
  {
    "name": " Cairnlea",
    "address": "100 Furlong Rd, Cairnlea, VIC 3023"
  },
  {
    "name": " Camberwell",
    "address": "Burke Ave (off Burke Rd), Camberwell, VIC 3124"
  },
  {
    "name": " Burntbridge",
    "address": "434 Maroondah Hwy, Ringwood East, VIC 3135"
  },
  {
    "name": " Colac",
    "address": "Corner Of Bromfield Street And Queen Street Colac, Colac, VIC 3250"
  },
  {
    "name": " Clayton",
    "address": "2-4 Cooke St, Clayton, VIC 3168"
  },
  {
    "name": " Collingwood",
    "address": "172 Smith St, Collingwood, VIC 3066"
  },
  {
    "name": " Coburg North",
    "address": "Gaffney Street, Coburg North, VIC 3058"
  },
  {
    "name": " Hastings",
    "address": "Church St & Victoria St, Hastings, VIC 3915"
  },
  {
    "name": " Healesville",
    "address": "251 Maroondah Highway, Healesville, VIC 3777"
  },
  {
    "name": " Ocean Keys",
    "address": "Ocean Keys Bvd & Key Largo Drv, Clarkson, WA 6030",
    "lat": -31.6898991,
    "lng": 115.7201002
  },
  {
    "name": " Hoppers Crossing",
    "address": "50 Old Geelong Road, Hoppers Crossing, VIC 3030"
  },
  {
    "name": " Hallam",
    "address": "2 Princes Domain Dr, Hallam, VIC 3803"
  },
  {
    "name": " Hampton (bluff Road)",
    "address": "361 Bluff Road, Hampton, VIC 3188"
  },
  {
    "name": " Margaret River",
    "address": "132 Bussell Highway, Margaret River, WA 6285",
    "lat": -33.951587,
    "lng": 115.0730103
  },
  {
    "name": " Parkmore",
    "address": "Cheltenham Rd & Kingsclere Ave, Keysborough, VIC 3173"
  },
  {
    "name": " Patterson Lakes",
    "address": "Gladesville Blvd & Mcleod Rd, Patterson Lakes, VIC 3197"
  },
  {
    "name": " Berkeley",
    "address": "65 Winnima Way, Berkeley, NSW 2506"
  },
  {
    "name": " Clayton (centre Rd)",
    "address": "Centre Rd & Cooke St, Clayton, VIC 3168",
    "lat": -37.9284009,
    "lng": 145.1177458
  },
  {
    "name": " Gungahlin",
    "address": "Hibberson St & Gungahlin Place, Gungahlin, NSW 2912",
    "lat": -35.1855205,
    "lng": 149.134776
  },
  {
    "name": " Caroline Springs",
    "address": "Caroline Springs Blvd & Lake St, Caroline Springs, VIC 3037",
    "lat": -37.7337111,
    "lng": 144.7409892
  },
  {
    "name": " Pinewood",
    "address": "433 Blackburn Rd, Mount Waverley, VIC 3149"
  },
  {
    "name": " Parkhill Junction",
    "address": "215 - 225 Parkhill Drive, Berwick, VIC 3806"
  },
  {
    "name": " Laurieton",
    "address": "Bold St & Tunis St, Laurieton, NSW 2443"
  },
  {
    "name": " Hornsby",
    "address": "Florence St & Hunter St, Hornsby, NSW 2077"
  },
  {
    "name": " Chadstone",
    "address": "1341 Dandenong Road, Chadstone, VIC 3148",
    "lat": -37.88627719999999,
    "lng": 145.0829501
  },
  {
    "name": " Ascot",
    "address": "Racecourse Rd & Dobson St, Ascot, QLD 4007",
    "lat": -27.4342672,
    "lng": 153.0651135
  },
  {
    "name": " Annandale",
    "address": "University Rd & Macarthur Drv, Annandale, QLD 4814",
    "lat": -19.317431,
    "lng": 146.7926747
  },
  {
    "name": " Aitkenvale",
    "address": "Ross River Rd & Nathan St, Aitkenvale, QLD 4814",
    "lat": -19.2981045,
    "lng": 146.7616165
  },
  {
    "name": " Albany Creek",
    "address": "Albany Creek Rd & Wruck Cres, Albany Creek, QLD 4035",
    "lat": -27.345571,
    "lng": 152.9684012
  },
  {
    "name": " Alderley",
    "address": "South Pine Rd & Samford Rd, Alderley, QLD 4051",
    "lat": -27.4253251,
    "lng": 153.0011505
  },
  {
    "name": " Hurstville",
    "address": "Cross St & Park Rd, Hurstville, NSW 2220",
    "lat": -33.9654699,
    "lng": 151.1050833
  },
  {
    "name": " Jamison",
    "address": "Bowman St, Macquarie, NSW 2614",
    "lat": -35.2534724,
    "lng": 149.0695964
  },
  {
    "name": " Cessnock",
    "address": "North Ave & Cooper St, Cessnock, NSW 2325",
    "lat": -32.8353096,
    "lng": 151.3545423
  },
  {
    "name": " Thuringowa",
    "address": "Cnr Dalrymple And Thuringowa Drive, Thuringowa, QLD 4817",
    "lat": -19.2878851,
    "lng": 146.7398165
  },
  {
    "name": " Charlestown",
    "address": "Pearson St, Charlestown, NSW 2290",
    "lat": -32.9638117,
    "lng": 151.6950623
  },
  {
    "name": " Bega",
    "address": "Parker St & Carp St, Bega, NSW 2550",
    "lat": -36.6746187,
    "lng": 149.8457579
  },
  {
    "name": " Caulfield",
    "address": "Dandenong Rd & Derby Rd, Caulfield, VIC 3162"
  },
  {
    "name": " Joondalup",
    "address": "Joondalup Drive, Joondalup, WA 6027"
  },
  {
    "name": " Inglewood",
    "address": "83 - 91 Salisbury Rd, Inglewood, WA 6052"
  },
  {
    "name": " Toombul",
    "address": "1015 Sandgate Rd, Toombul, QLD 4012",
    "lat": -27.408965,
    "lng": 153.061878
  },
  {
    "name": " Kalamunda",
    "address": "Central Rd & Mead St, Kalamunda, WA 6076"
  },
  {
    "name": " Yarrabilba",
    "address": "Cnr Yarrabilba And Darlington Drive, Yarrabilba, QLD 4207",
    "lat": -27.8022628,
    "lng": 153.1031476
  },
  {
    "name": " Scone",
    "address": "209 Kelly St, Scone, NSW 2337",
    "lat": -32.0519971,
    "lng": 150.866842
  },
  {
    "name": " Footscray",
    "address": "Corner Paisly And Albert Street, Footscray, VIC 3011",
    "lat": -37.8007464,
    "lng": 144.8980031
  },
  {
    "name": " Yeppoon",
    "address": "64-79 James St, Yeppoon, QLD 4703",
    "lat": -23.1284816,
    "lng": 150.7460576
  },
  {
    "name": " San Remo",
    "address": "21 Pacific Hwy, San Remo, NSW 2262",
    "lat": -33.2159064,
    "lng": 151.5108666
  },
  {
    "name": " Fitzroy",
    "address": "95 - 103 Johnston St, Fitzroy, VIC 3065",
    "lat": -37.7980808,
    "lng": 144.9779644
  },
  {
    "name": " Horsham",
    "address": "Darlot St & Roberts Ave, Horsham, VIC 3400",
    "lat": -36.7139957,
    "lng": 142.1976549
  },
  {
    "name": " Lighthouse Beach",
    "address": "Ocean Drive & Emerald Drive, Port Macquarie South, NSW 2444",
    "lat": -31.4785988,
    "lng": 152.9153749
  },
  {
    "name": " Fountain Gate",
    "address": "Princes Hwy & Magid Dr, Narre Warren, VIC 3805",
    "lat": -38.0200659,
    "lng": 145.2982218
  },
  {
    "name": " Leichhardt",
    "address": "51 - 57 Norton St, Leichhardt, NSW 2040",
    "lat": -33.8860553,
    "lng": 151.1581884
  },
  {
    "name": " Frankston",
    "address": "Keys St & Ross Smith Ave, Frankston, VIC 3199",
    "lat": -38.14136939999999,
    "lng": 145.1230109
  },
  {
    "name": " Vasse",
    "address": "Napoleon Promenade, Vasse, WA 6280"
  },
  {
    "name": " Trinity Village",
    "address": "Cnr Marmion And Santorini Avenues, Alkimos, WA 6038"
  },
  {
    "name": " Tom Price",
    "address": "Central Road, Tom Price, WA 6751"
  },
  {
    "name": " Warwick",
    "address": "Beach Rd & Ernidale Rd, Warwick, WA 6024"
  },
  {
    "name": " Wanneroo",
    "address": "950 Wanneroo Rd, Wanneroo, WA 6065"
  },
  {
    "name": " Kalgoorlie",
    "address": "Brookman St & Wilson St, Kalgoorlie, WA 6430"
  },
  {
    "name": " Kardinya",
    "address": "North Lake Rd & South St, Kardinya, WA 6163"
  },
  {
    "name": " Karratha",
    "address": "Welcome Rd, Karratha, WA 6714"
  },
  {
    "name": " Karawara",
    "address": "Manning St & Kent St, Karawara, WA 6152"
  },
  {
    "name": " Whitford",
    "address": "Cnr Whitfords Av & Marmion Av, Hillarys, WA 6025"
  },
  {
    "name": " Warnbro",
    "address": "Palm Springs Blvd & Warnbro Sound Av, Warnbro, WA 6169"
  },
  {
    "name": " West Leederville",
    "address": "115 Cambridge St, West Leederville, WA 6007"
  },
  {
    "name": " Kalgoorlie",
    "address": "89 Graeme St, Kalgoorlie, WA 6430"
  },
  {
    "name": " Victoria Park",
    "address": "Albany Hwy & Basinghall St, East Victoria Park, WA 6101"
  },
  {
    "name": " Swanview",
    "address": "Gladstone Rd & Marlboro Ave, Swan View, WA 6056"
  },
  {
    "name": " Thornlie",
    "address": "Spencer Rd & Thornlie Ave, Thornlie, WA 6108"
  },
  {
    "name": " Subiaco",
    "address": "44 Station Street, Subiaco, WA 6008"
  },
  {
    "name": " Mudgee",
    "address": "Church St & Mortimer St, Mudgee, NSW 2850"
  },
  {
    "name": " Parramatta",
    "address": "Church St & Campbell St, Parramatta, NSW 2150"
  },
  {
    "name": " The Grand (dee Why)",
    "address": "Pittwater Rd, Dee Why, NSW 2099"
  },
  {
    "name": " St Leonards",
    "address": "Pacific Hwy & Herbert St, St Leonards, NSW 2065"
  },
  {
    "name": " South West Rocks",
    "address": "Gregory St & Spencers Creek Rd, South West Rocks, NSW 2431"
  },
  {
    "name": " Parkes",
    "address": "31 Bogan Street, Parkes, NSW 2870"
  },
  {
    "name": " Mt Annan",
    "address": "Waterworth Dr & Holdsworth Dr, Mount Annan, NSW 2567"
  },
  {
    "name": " Mount Druitt",
    "address": "Carlisle Ave & Luxford Rd, Mount Druitt, NSW 2770"
  },
  {
    "name": " Salamander Bay",
    "address": "Salamander Way & Bagnall Beach Rd, Salamander Bay, NSW 2317"
  },
  {
    "name": " South Grafton",
    "address": "Bent St & Charles St, South Grafton, NSW 2460"
  },
  {
    "name": " Pagewood",
    "address": "Bunnerong Rd & Wentworth Ave, Pagewood, NSW 2035"
  },
  {
    "name": " South Tamworth",
    "address": "4-10 Kathleen St, South Tamworth, NSW 2340"
  },
  {
    "name": " Cleveland",
    "address": "91 Middle St, Cleveland, QLD 4163"
  },
  {
    "name": " Clifton Beach",
    "address": "Endeavour St & Captain Cook Hwy, Clifton Beach, QLD 4879"
  },
  {
    "name": " Capalaba Central",
    "address": "Moreton Bay Rd, Capalaba, QLD 4157"
  },
  {
    "name": " Cairns Central",
    "address": "Mcleod St & Aplin St, Cairns, QLD 4870"
  },
  {
    "name": " Cannon Hill",
    "address": "Creek Rd & Wynnum Rd, Cannon Hill, QLD 4170"
  },
  {
    "name": " Burnside",
    "address": "439 Portrush Rd, Glenside, SA 5065"
  },
  {
    "name": " Corinda",
    "address": "Oxley Rd & Clewley St, Corinda, QLD 4075"
  },
  {
    "name": " Jimboomba",
    "address": "665 - 687 Cusack Ln, Jimboomba, QLD 4280"
  },
  {
    "name": " Capalaba",
    "address": "Redland Bay Rd & Mt Cotton Rd, Capalaba, QLD 4157"
  },
  {
    "name": " Clifford Gardens",
    "address": "Cnr Anzac Av & James St, Toowoomba, QLD 4350"
  },
  {
    "name": " Carindale (westfield)",
    "address": "Creek Rd, Carindale, QLD 4152"
  },
  {
    "name": " Jindalee",
    "address": "Sinnamon Rd, Jindalee, QLD 4074"
  },
  {
    "name": " Moranbah",
    "address": "Griffin Street, Moranbah, QLD 4744"
  },
  {
    "name": " Morayfield",
    "address": "197 Morayfield Rd, Morayfield, QLD 4506"
  },
  {
    "name": " Chermside",
    "address": "Gympie Rd & Hamilton Rd, Chermside, QLD 4032"
  },
  {
    "name": " Berri",
    "address": "Kay Ave, Berri, SA 5343"
  },
  {
    "name": " Anzac Highway",
    "address": "Cnr Marion Rd & Anzac Hwy, Plympton, SA 5038"
  },
  {
    "name": " Caloundra",
    "address": "47 Bowman Rd, Caloundra, QLD 4551"
  },
  {
    "name": " Blackwood",
    "address": "Cnr Main Rd & Young St, Blackwood, SA 5051"
  },
  {
    "name": " Aldinga Beach",
    "address": "Rowley Rd & Aldinga Beach Rd, Aldinga Beach, SA 5173"
  },
  {
    "name": " Helensburgh",
    "address": "Walker St & Short St, Helensburgh, NSW 2508",
    "lat": -34.1913847,
    "lng": 150.9820089
  },
  {
    "name": " Heritage Springs",
    "address": "Henry Rd & Mcgregor Rd, Pakenham, VIC 3810",
    "lat": -38.0863219,
    "lng": 145.4720248
  },
  {
    "name": " Point Cook",
    "address": "5 Main St, Point Cook, VIC 3030",
    "lat": -37.8816364,
    "lng": 144.7351882
  },
  {
    "name": " Murwillumbah",
    "address": "52 - 56 Wollumbin St, Murwillumbah, NSW 2484",
    "lat": -28.3281955,
    "lng": 153.3962946
  },
  {
    "name": " Maryborough",
    "address": "Tuaggra St & Burke St, Maryborough, VIC 3465"
  },
  {
    "name": " Lynbrook",
    "address": "75 Lynbrook Blvd, Lynbrook, VIC 3975"
  },
  {
    "name": " Glenorchy",
    "address": "Main Rd & King George V Av, Glenorchy, TAS 7010",
    "lat": -42.8315833,
    "lng": 147.2706597
  },
  {
    "name": " Launceston (charles St)",
    "address": "198 Charles Street, Launceston, TAS 7250",
    "lat": -41.4418046,
    "lng": 147.1400284
  },
  {
    "name": " Harrington Park",
    "address": "Fairwater Dr & Lake View Crt, Harrington Park, NSW 2567",
    "lat": -34.0283765,
    "lng": 150.7338874
  },
  {
    "name": " Devonport",
    "address": "86 Best St, Devonport, TAS 7310",
    "lat": -41.1766544,
    "lng": 146.3553308
  },
  {
    "name": " Plenty Valley",
    "address": "Mcdonalds Rd & Civic Drv, Mill Park, VIC 3082",
    "lat": -37.6487374,
    "lng": 145.0660107
  },
  {
    "name": " Tamworth North",
    "address": "Peel St & Mauris St, Tamworth North, NSW 2340",
    "lat": -31.0785468,
    "lng": 150.9185877
  },
  {
    "name": " Windsor",
    "address": "223 George St, Windsor, NSW 2756",
    "lat": -33.6072329,
    "lng": 150.8193546
  },
  {
    "name": " Eastlands",
    "address": "1 Bligh St, Rosny, TAS 7018",
    "lat": -42.8673178,
    "lng": 147.3681452
  },
  {
    "name": " Innaloo",
    "address": "384 Scarborough Beach Rd, Innaloo, WA 6018"
  },
  {
    "name": " Wingham",
    "address": "Primrose St & Isabella St, Wingham, NSW 2429",
    "lat": -31.8682246,
    "lng": 152.371328
  },
  {
    "name": " Rhodes",
    "address": "1 Rider Blvd, Rhodes, NSW 2138",
    "lat": -33.8348117,
    "lng": 151.0852403
  },
  {
    "name": " Gateway",
    "address": "816 Beeliar Drive, Success, WA 6164"
  },
  {
    "name": " Gosnells",
    "address": "2160 Albany Hwy, Gosnells, WA 6110"
  },
  {
    "name": " Greenwood",
    "address": "Calectasia St, Greenwood, WA 6024"
  },
  {
    "name": " Haynes",
    "address": "Armadale Rd And Eigth Avenue, Brookdale, WA 6112"
  },
  {
    "name": " Geraldton",
    "address": "Chapman Rd & View St, Geraldton, WA 6530"
  },
  {
    "name": " Halls Head",
    "address": "14 Guava Way, Halls Head, WA 6210"
  },
  {
    "name": " Hillarys",
    "address": "110 Flinders Ave, Hillarys, WA 6025"
  },
  {
    "name": " High Wycombe",
    "address": "530 Kalamunda Rd, High Wycombe, WA 6057"
  },
  {
    "name": " Kununurra",
    "address": "Konkerberry Drv, Kununurra, WA 6743"
  },
  {
    "name": " Kelmscott",
    "address": "Albany Hwy & Gilwell Ave, Kelmscott, WA 6111"
  },
  {
    "name": " Kwinana",
    "address": "Cnr Gilmore & Chisham Aves, Kwinana, WA 6167"
  },
  {
    "name": " Mooroopna",
    "address": "107 - 123 Echuca Rd, Mooroopna, VIC 3629",
    "lat": -36.3843018,
    "lng": 145.3538989
  },
  {
    "name": " Moonee Ponds",
    "address": "Homer St & Eddy St, Moonee Ponds, VIC 3039",
    "lat": -37.7648936,
    "lng": 144.9204468
  },
  {
    "name": " Hamilton",
    "address": "179-193 Gray St, Hamilton, VIC 3300"
  },
  {
    "name": " Greenvale",
    "address": "1 - 11 Greenvale Drv, Greenvale, VIC 3059"
  },
  {
    "name": " Springfield Orion",
    "address": "1 Main Street, Springfield Lakes, QLD 4300"
  },
  {
    "name": " Springwood",
    "address": "Cinderella Drv, Springwood, QLD 4127"
  },
  {
    "name": " Kilmore",
    "address": "Sydney St & Clarke Street, Kilmore, VIC 3764"
  },
  {
    "name": " Keilor Downs",
    "address": "Taylors Rd, Keilor Downs, VIC 3038"
  },
  {
    "name": " Knox",
    "address": "Burwood Hwy & Stud Rd, Wantirna South, VIC 3152"
  },
  {
    "name": " Malvern",
    "address": "164-178 Glenferrie Rd, Malvern, VIC 3144"
  },
  {
    "name": " Karingal",
    "address": "Ashleigh Ave, Karingal, VIC 3199"
  },
  {
    "name": " Kilsyth",
    "address": "520-526 Mt Dandenong Rd, Kilsyth, VIC 3137"
  },
  {
    "name": " Langwarrin",
    "address": "Cranbourne Rd & South Gateway, Langwarrin, VIC 3910"
  },
  {
    "name": " Leopold",
    "address": "621 - 659 Bellarine Hwy, Leopold, VIC 3224"
  },
  {
    "name": " Noble Park",
    "address": "1 Douglas St, Noble Park, VIC 3174"
  },
  {
    "name": " Northland",
    "address": "2/50 Murray Rd, Preston, VIC 3072"
  },
  {
    "name": " Warragul",
    "address": "30 Palmerston St, Warragul, VIC 3820"
  },
  {
    "name": " Warrnambool (lava St)",
    "address": "130 Lava St, Warrnambool, VIC 3280"
  },
  {
    "name": " Lara",
    "address": "Waverley Rd, Lara, VIC 3212"
  },
  {
    "name": " Waurn Ponds",
    "address": "Pioneer Rd & Princes Hwy, Waurn Ponds, VIC 3216"
  },
  {
    "name": " Warrnambool",
    "address": "150 Raglan Parade, Warrnambool, VIC 3280"
  },
  {
    "name": " Myrtleford",
    "address": "37 Clyde St, Myrtleford, VIC 3737"
  },
  {
    "name": " Avondale Heights",
    "address": "65 Military Rd, Avondale Heights, VIC 3034",
    "lat": -37.7674064,
    "lng": 144.8633239
  },
  {
    "name": " Kangaroo Flat",
    "address": "267 - 283 High Street, Kangaroo Flat, VIC 3555"
  },
  {
    "name": " Woodend",
    "address": "128 High Street, Woodend, VIC 3442"
  },
  {
    "name": " Croydon",
    "address": "Kent Ave & Wicklow Ave, Croydon, VIC 3136",
    "lat": -37.7944833,
    "lng": 145.2811444
  },
  {
    "name": " Mornington",
    "address": "Franklin St & Gordon St, Mornington, VIC 3931",
    "lat": -38.2192516,
    "lng": 145.0399798
  },
  {
    "name": " Picton",
    "address": "9 - 13 Margaret St, Picton, NSW 2571",
    "lat": -34.1688741,
    "lng": 150.6136464
  },
  {
    "name": " Wollongong",
    "address": "Cnr Keira St & Crown Lane, Wollongong, NSW 2500"
  },
  {
    "name": " Winston Hills",
    "address": "Caroline Chisholm Drv & Langdon Rd, Winston Hills, NSW 2153"
  },
  {
    "name": " Coorparoo",
    "address": "252 Old Cleveland Rd, Coorparoo, QLD 4151"
  },
  {
    "name": " Smithfield",
    "address": "673 The Horsley Drv, Smithfield, NSW 2164"
  },
  {
    "name": " Woden",
    "address": "Cnr Melrose & Hindmarsh Drives, Phillip, NSW 2606"
  },
  {
    "name": " Coomera City Centre",
    "address": "1 City Centre Dr, Upper Coomera, QLD 4209"
  },
  {
    "name": " Woy Woy",
    "address": "Railway St & George St, Woy Woy, NSW 2256"
  },
  {
    "name": " Winmalee",
    "address": "32 - 44 White Cross Rd, Winmalee, NSW 2777"
  },
  {
    "name": " Bridgewater",
    "address": "Carey Gulley Rd, Bridgewater, SA 5155"
  },
  {
    "name": " Southlands",
    "address": "Burrendah Blvd & Pinetree Gully, Willetton, WA 6155"
  },
  {
    "name": " Essendon Fields",
    "address": "30 English St, Strathmore, VIC 3041",
    "lat": -37.7271651,
    "lng": 144.8955192
  },
  {
    "name": " Daylesford",
    "address": "Albert St & Bridport St, Daylesford, VIC 3460",
    "lat": -37.3413379,
    "lng": 144.1412516
  },
  {
    "name": " Dandenong Plaza",
    "address": "Walker St & Mccrae Sts, Dandenong, VIC 3175",
    "lat": -37.9871194,
    "lng": 145.216341
  },
  {
    "name": " Kingsbury",
    "address": "850 Plenty Rd, Reservoir, VIC 3073"
  },
  {
    "name": " Eltham",
    "address": "Main Rd & Arthur St, Eltham, VIC 3095",
    "lat": -37.7143316,
    "lng": 145.1482989
  },
  {
    "name": " Croydon North",
    "address": "Maroondah Hwy & Exeter Rd, Croydon North, VIC 3136",
    "lat": -37.77082,
    "lng": 145.2950359
  },
  {
    "name": " Werribee",
    "address": "143 Watton St, Werribee, VIC 3030"
  },
  {
    "name": " Woodgrove",
    "address": "Western Fwy & Coburns Rd, Melton, VIC 3337"
  },
  {
    "name": " Wodonga Plaza",
    "address": "Elgin St & Watson St, Wodonga, VIC 3690"
  },
  {
    "name": " Wodonga",
    "address": "Elgin Boulevard Wodonga, Wodonga, VIC 3690"
  },
  {
    "name": " Albany (orana)",
    "address": "Albany Hwy, Orana, WA 6330"
  },
  {
    "name": " Wonthaggi",
    "address": "2 Biggs Dr, Wonthaggi, VIC 3995"
  },
  {
    "name": " Yarraville",
    "address": "Williamstown Rd & High St, Yarraville, VIC 3013"
  },
  {
    "name": " Dandenong",
    "address": "23 - 26 Princes Hwy, Dandenong, VIC 3175",
    "lat": -37.9837469,
    "lng": 145.2135908
  },
  {
    "name": " Middle Park",
    "address": "92 Horizon Dr, Middle Park, QLD 4074"
  },
  {
    "name": " Waverley Gardens",
    "address": "Police Rd & Jackson Rd, Mulgrave, VIC 3170"
  },
  {
    "name": " Albany",
    "address": "38-56 Albany Hwy, Albany, WA 6330"
  },
  {
    "name": " Echuca",
    "address": "Darling St & Hare St, Echuca, VIC 3564",
    "lat": -36.1309981,
    "lng": 144.7493533
  },
  {
    "name": " Cranbourne West",
    "address": "Duff St & Monahans Rd, Cranbourne West, VIC 3977",
    "lat": -38.103057,
    "lng": 145.2652848
  },
  {
    "name": " Epping",
    "address": "High St & Cooper St, Epping, VIC 3076",
    "lat": -37.6519356,
    "lng": 145.0235521
  },
  {
    "name": " Bassendean",
    "address": "West Rd, Bassendean, WA 6054",
    "lat": -31.9111364,
    "lng": 115.9539844
  },
  {
    "name": " New Town",
    "address": "1 Risdon Rd, New Town, TAS 7008",
    "lat": -42.85598239999999,
    "lng": 147.3058762
  },
  {
    "name": " Newstead",
    "address": "165a Elphin Rd, Newstead, TAS 7250",
    "lat": -41.4414818,
    "lng": 147.1609627
  },
  {
    "name": " Gatton",
    "address": "Anne St & William St, Gatton, QLD 4343",
    "lat": -27.56011,
    "lng": 152.2781985
  },
  {
    "name": " Ivanhoe",
    "address": "4 Livingston St, Ivanhoe, VIC 3079",
    "lat": -37.7683936,
    "lng": 145.0418195
  },
  {
    "name": " Mooroolbark",
    "address": "15 Brice Ave, Mooroolbark, VIC 3138"
  },
  {
    "name": " Mildura (eighth St)",
    "address": "45-65 Lime Avenue, Mildura, VIC 3500"
  },
  {
    "name": " Northcote (separation Street End)",
    "address": "Separation Street, Northcote, VIC 3070"
  },
  {
    "name": " Moe",
    "address": "92 Albert St, Moe, VIC 3825"
  },
  {
    "name": " Mildura (fifteenth St)",
    "address": "Cnr Sanmateo Av & Fifteenth St, Mildura, VIC 3500"
  },
  {
    "name": " Mitcham",
    "address": "Britannia St & Victoria Av, Mitcham, VIC 3132"
  },
  {
    "name": " Mill Park Lakes",
    "address": "The Lakes Blvd & Gordons Rd, South Morang, VIC 3752"
  },
  {
    "name": " Singleton",
    "address": "Gowrie St, Singleton, NSW 2330"
  },
  {
    "name": " Wallan",
    "address": "Queen St & Northern Hwy, Wallan, VIC 3756"
  },
  {
    "name": " Eden Rise",
    "address": "Corner Of O'shea Rd And Clyde Rd, Berwick South, VIC 3806",
    "lat": -38.0599015,
    "lng": 145.3382027
  },
  {
    "name": " Dalby",
    "address": "New Condamine St & Patrick St, Dalby, QLD 4405",
    "lat": -27.1798904,
    "lng": 151.2645659
  },
  {
    "name": " Baldivis",
    "address": "Safety Bay Rd, Baldivis, WA 6171",
    "lat": -32.3281734,
    "lng": 115.8037589
  },
  {
    "name": " Shellharbour",
    "address": "Lake Entrance Rd, Shellharbour, NSW 2529"
  },
  {
    "name": " Stud Park",
    "address": "Stud Rd & Fulham Rd, Rowville, VIC 3178",
    "lat": -37.9175839,
    "lng": 145.2349784
  },
  {
    "name": " Goondiwindi",
    "address": "Herbert St & Callandoon St, Goondiwindi, QLD 4390",
    "lat": -28.5461062,
    "lng": 150.3053337
  },
  {
    "name": " Kallangur",
    "address": "2 Nellies Lane, Kallangur, QLD 4503",
    "lat": -27.2410341,
    "lng": 152.9939443
  },
  {
    "name": " Kenmore",
    "address": "Brookfield Rd, Kenmore, QLD 4069",
    "lat": -27.505305,
    "lng": 152.9329018
  },
  {
    "name": " Labrador",
    "address": "100 Brisbane Rd, Labrador, QLD 4215",
    "lat": -27.9363777,
    "lng": 153.3976395
  },
  {
    "name": " Kensington",
    "address": "130a Takalvan St, Kensington, QLD 4670",
    "lat": -24.8907677,
    "lng": 152.3204695
  },
  {
    "name": " Mount Gravatt Plaza",
    "address": "Logan Road, Mount Gravatt, QLD 4122",
    "lat": -27.5372585,
    "lng": 153.0784149
  },
  {
    "name": " Mount Isa",
    "address": "Simpson St & Marian St, Mount Isa, QLD 4825",
    "lat": -20.725114,
    "lng": 139.4951945
  },
  {
    "name": " Helensvale Plaza",
    "address": "Gold Coast Hwy, Helensvale, QLD 4210"
  },
  {
    "name": " Kawana Waters",
    "address": "Point Cartwright Drv & Nicklin Way, Buddina, QLD 4575",
    "lat": -26.7029603,
    "lng": 153.1284817
  },
  {
    "name": " Kippa Ring",
    "address": "Anzac Ave & Boardman Rd, Kippa Ring, QLD 4020",
    "lat": -27.2262478,
    "lng": 153.0845362
  },
  {
    "name": " Gladstone",
    "address": "Dawson Hwy & Phillip St, Gladstone, QLD 4680"
  },
  {
    "name": " Ormeau",
    "address": "180 - 186 Pascoe Rd, Ormeau, QLD 4208",
    "lat": -27.7633411,
    "lng": 153.2451533
  },
  {
    "name": " Gympie",
    "address": "Monkland St & Nash St, Gympie, QLD 4570"
  },
  {
    "name": " North Ward",
    "address": "26 - 28 Mitchell Street, North Ward, QLD 4810",
    "lat": -19.2523738,
    "lng": 146.8145167
  },
  {
    "name": " Kedron",
    "address": "346  Gympie Rd, Kedron, QLD 4031",
    "lat": -27.4037372,
    "lng": 153.0313992
  },
  {
    "name": " Lake Haven",
    "address": "Lake Haven Drive, Gorokan, NSW 2263",
    "lat": -33.2480703,
    "lng": 151.4971595
  },
  {
    "name": " North Shore",
    "address": "722 - 728 David Low Way, Pacific Paradise, QLD 4564",
    "lat": -26.614302,
    "lng": 153.0826439
  },
  {
    "name": " Mount Gravatt",
    "address": "Cnr Kessels & Logan Rds, Upper Mount Gravatt, QLD 4122",
    "lat": -27.559992,
    "lng": 153.081135
  },
  {
    "name": " Katoomba",
    "address": "34 Parke Street, Katoomba, NSW 2780",
    "lat": -33.714535,
    "lng": 150.310242
  },
  {
    "name": " Lane Cove",
    "address": "56 - 60 Burns Bay Rd, Lane Cove, NSW 2066",
    "lat": -33.814909,
    "lng": 151.1676882
  },
  {
    "name": " Northern Beaches",
    "address": "Mackay Bucasia Rd & Sologinkins Rd, North Mackay, QLD 4740",
    "lat": -21.0663039,
    "lng": 149.156941
  },
  {
    "name": " Lake Innes Village",
    "address": "525 Oxley Hwy, Port Macquarie West, NSW 2444",
    "lat": -31.4493605,
    "lng": 152.8781365
  },
  {
    "name": " Kings Cross",
    "address": "88 - 94 Darlinghurst Rd, Kings Cross, NSW 2011",
    "lat": -33.8753312,
    "lng": 151.2224133
  },
  {
    "name": " Kotara",
    "address": "Park Ave & Northcott Drv, Kotara, NSW 2289",
    "lat": -32.9406475,
    "lng": 151.712469
  },
  {
    "name": " Kings Langley",
    "address": "James Cook Drive & Ravenhill St, Kings Langley, NSW 2147",
    "lat": -33.7425986,
    "lng": 150.9230712
  },
  {
    "name": " Glenroy",
    "address": "Glenroy Rd & Morgan Crt, Glenroy, VIC 3046",
    "lat": -37.7061882,
    "lng": 144.9166416
  },
  {
    "name": " Williamstown",
    "address": "29 Douglas Pde, Williamstown, VIC 3016",
    "lat": -37.8574892,
    "lng": 144.8973641
  },
  {
    "name": " Greensborough Plaza",
    "address": "25 Main St, Greensborough, VIC 3088",
    "lat": -37.7020429,
    "lng": 145.1027089
  },
  {
    "name": " Midland",
    "address": "Great Eastern Hwy, Midland, WA 6056",
    "lat": -31.8912504,
    "lng": 116.0098032
  },
  {
    "name": " Killarney Vale",
    "address": "Wyong St & South St, Killarney Vale, NSW 2261",
    "lat": -33.3644952,
    "lng": 151.4579109
  },
  {
    "name": " Galleria",
    "address": "Collier Rd & Walter Rd, Morley, WA 6062",
    "lat": -31.8947958,
    "lng": 115.9024747
  },
  {
    "name": " Maylands",
    "address": "Guildford Rd & Caledonian Ave, Maylands, WA 6051",
    "lat": -31.9292641,
    "lng": 115.8976081
  },
  {
    "name": " Kempsey",
    "address": "Pacific Hwy & Belgrave St, Kempsey, NSW 2440",
    "lat": -31.08109,
    "lng": 152.841959
  },
  {
    "name": " Bunbury Forum",
    "address": "Strickland St & Pennant St, Bunbury, WA 6230",
    "lat": -33.336262,
    "lng": 115.6576031
  },
  {
    "name": " Glenferrie",
    "address": "689-699 Glenferrie Rd, Glenferrie, VIC 3122",
    "lat": -37.8200161,
    "lng": 145.0355726
  },
  {
    "name": " Square",
    "address": "Central Ave & Merton St, Altona Meadows, VIC 3028",
    "lat": -37.8862451,
    "lng": 144.7755736
  },
  {
    "name": " Somerville",
    "address": "49 Eramosa Rd, Somerville, VIC 3912",
    "lat": -38.22426979999999,
    "lng": 145.1697931
  },
  {
    "name": " Churchill",
    "address": "390 Churchill Rd, Kilburn, SA 5082",
    "lat": -34.8654282,
    "lng": 138.5811632
  },
  {
    "name": " Craigmore",
    "address": "Yorktown Road, Craigmore, SA 5114",
    "lat": -34.7080768,
    "lng": 138.7090755
  },
  {
    "name": " Collie",
    "address": "49 Johnston St, Collie, WA 6225",
    "lat": -33.3575327,
    "lng": 116.1526015
  },
  {
    "name": " Sanctuary Lakes",
    "address": "Point Cook Rd & Jamieson Wy, Point Cook, VIC 3030",
    "lat": -37.8958929,
    "lng": 144.7531746
  },
  {
    "name": " Upper Coomera",
    "address": "72 Reserve Rd, Upper Coomera, QLD 4210",
    "lat": -27.8693468,
    "lng": 153.3059046
  },
  {
    "name": " Caversham",
    "address": "175 Suffolk St, Caversham, WA 6055",
    "lat": -31.8677116,
    "lng": 115.9667781
  },
  {
    "name": " Chinatown",
    "address": "Carnarvon St & Short St, Broome, WA 6725",
    "lat": -17.9522052,
    "lng": 122.2431239
  },
  {
    "name": " Wyong",
    "address": "11 - 18 Alison Rd, Wyong, NSW 2259",
    "lat": -33.2835695,
    "lng": 151.4232581
  },
  {
    "name": " Wyoming",
    "address": "Pacific Hwy & Kinarra Ave, Wyoming, NSW 2250",
    "lat": -33.4059601,
    "lng": 151.3510249
  },
  {
    "name": " West Pennant Hills",
    "address": "556 Pennant Hills Rd, West Pennant Hills, NSW 2125",
    "lat": -33.7466404,
    "lng": 151.0503195
  },
  {
    "name": " Bundaberg",
    "address": "George St & Maryborough St, Bundaberg, QLD 4670",
    "lat": -24.8724406,
    "lng": 152.3484285
  },
  {
    "name": " Brookside",
    "address": "Osborne Rd, Mitchelton, QLD 4053",
    "lat": -27.4082027,
    "lng": 152.9779676
  },
  {
    "name": " Yamba",
    "address": "Treelands Dr & Yamba Rd, Yamba, NSW 2464",
    "lat": -29.4295126,
    "lng": 153.3272538
  },
  {
    "name": " Burleigh Waters",
    "address": "Bermuda St & Reedy Creek Rd, Burleigh Waters, QLD 4220",
    "lat": -28.0997524,
    "lng": 153.4249501
  },
  {
    "name": " Alice Springs",
    "address": "Bath St & Gregory Tce, Alice Springs, NT 0870",
    "lat": -23.6984647,
    "lng": 133.8792401
  },
  {
    "name": " Carousel",
    "address": "1382 Albany Hwy, Cannington, WA 6107",
    "lat": -32.0199279,
    "lng": 115.9388969
  },
  {
    "name": " Toowoomba North",
    "address": "Cnr North St & Ruthven St, Toowoomba North, QLD 4350",
    "lat": -27.5419906,
    "lng": 151.9540486
  },
  {
    "name": " Toowoomba South",
    "address": "Ruthven St & Stenner St, Toowoomba, QLD 4350",
    "lat": -27.5930465,
    "lng": 151.9477288
  },
  {
    "name": " Sutherland",
    "address": "822-826 Old Princes Highway, Sutherland, NSW 2232",
    "lat": -34.0334569,
    "lng": 151.0569356
  },
  {
    "name": " Swansea",
    "address": "210 - 224 Pacific Hwy, Swansea, NSW 2281",
    "lat": -33.0913011,
    "lng": 151.6373316
  },
  {
    "name": " Sylvania",
    "address": "Port Hacking Rd & Princes Hwy, Sylvania, NSW 2224",
    "lat": -34.0080438,
    "lng": 151.10573
  },
  {
    "name": " The Pines",
    "address": "Blackburn Rd & Reynolds Rd, Doncaster East, VIC 3109",
    "lat": -37.7635558,
    "lng": 145.1666042
  },
  {
    "name": " Richmond",
    "address": "240 Church St, Richmond, VIC 3121",
    "lat": -37.8180181,
    "lng": 144.9991551
  },
  {
    "name": " Fremantle",
    "address": "Cantoment St & Goldsborough St, Fremantle, WA 6160",
    "lat": -32.0510479,
    "lng": 115.7482448
  },
  {
    "name": " Prahran",
    "address": "303 Chapel St, Prahran, VIC 3181",
    "lat": -37.8478654,
    "lng": 144.9932837
  },
  {
    "name": " Garden City",
    "address": "Marmion St & Riseley St, Booragoon, WA 6154",
    "lat": -32.0364716,
    "lng": 115.8379254
  },
  {
    "name": " Newmarket",
    "address": "Enoggera Rd & Edmonstone St, Newmarket, QLD 4051",
    "lat": -27.4382598,
    "lng": 153.007329
  },
  {
    "name": " The Glen",
    "address": "Springvale Rd & High St, Glen Waverley, VIC 3150",
    "lat": -37.87445719999999,
    "lng": 145.1669204
  },
  {
    "name": " Findon",
    "address": "303 Grange Rd, Findon, SA 5023",
    "lat": -34.9049847,
    "lng": 138.5302118
  },
  {
    "name": " Maryborough",
    "address": "Alice St & Lennox St, Maryborough, QLD 4650"
  },
  {
    "name": " Mango Hill",
    "address": "Cnr Of Anzac Rd And Halpine Drive, Mango Hill, QLD 4509"
  },
  {
    "name": " Marsden",
    "address": "Chambers Flat Rd, Marsden, QLD 4132"
  },
  {
    "name": " Mermaid Waters",
    "address": "Bermuda St & Markeri St, Mermaid Waters, QLD 4218"
  },
  {
    "name": " Mareeba",
    "address": "Byrnes St, Mareeba, QLD 4880"
  },
  {
    "name": " Maroochydore",
    "address": "Horton Pde & Maroochydore Rd, Maroochydore, QLD 4558"
  },
  {
    "name": " Edwardstown",
    "address": "992 South Rd, Edwardstown, SA 5039",
    "lat": -34.9808167,
    "lng": 138.5730632
  },
  {
    "name": " Murrumba Downs",
    "address": "Dohles Rocks Rd & Goodrich Rd, Murrumba Downs, QLD 4503"
  },
  {
    "name": " Mackay (parkside)",
    "address": "245 Bridge Rd (cnr Paradise St), West Mackay, QLD 4740"
  },
  {
    "name": " Mudgeeraba",
    "address": "Railway St & Link Rd, Mudgeeraba, QLD 4213"
  },
  {
    "name": " Nambour",
    "address": "9-13 Mill Street, Nambour, QLD 4560"
  },
  {
    "name": " Mount Ommaney",
    "address": "171 Dandenong Rd, Mount Ommaney, QLD 4074"
  },
  {
    "name": " Mount Pleasant",
    "address": "Malcomson St & Mackay Bucasia Rd, Mackay, QLD 4740"
  },
  {
    "name": " Logan Central",
    "address": "Wembley Rd & Wilbur St, Logan Central, QLD 4114"
  },
  {
    "name": " Mount Warren Park",
    "address": "23 - 30 Mt Warren Blvd, Mount Warren Park, QLD 4207"
  },
  {
    "name": " Miami",
    "address": "Nundah Ave & Gold Coast Hwy, Miami, QLD 4220"
  },
  {
    "name": " Mooloolaba",
    "address": "Venning St & Walan St, Mooloolaba, QLD 4557"
  },
  {
    "name": " Mount Sheridan",
    "address": "Bruce Hwy & Foster Rd, Mount Sheridan, QLD 4868"
  },
  {
    "name": " Elizabeth",
    "address": "Philip Hwy, Elizabeth, SA 5112",
    "lat": -34.7248891,
    "lng": 138.6671886
  },
  {
    "name": " Wellington St",
    "address": "128 Wellington St, Launceston, TAS 7250",
    "lat": -41.4447981,
    "lng": 147.1387785
  },
  {
    "name": " Burnie",
    "address": "26 Mount St, Burnie, TAS 7320",
    "lat": -41.0511658,
    "lng": 145.9052149
  },
  {
    "name": " Coolum",
    "address": "19 Birtwill St & Margaret St, Coolum Beach, QLD 4573"
  },
  {
    "name": " Lutwyche",
    "address": "Lutwyche Rd & Lowerson St, Lutwyche, QLD 4030",
    "lat": -27.42289,
    "lng": 153.033773
  },
  {
    "name": " Loganholme",
    "address": "Pacific Hwy & Bryants Rd, Loganholme, QLD 4129",
    "lat": -27.6623786,
    "lng": 153.1727439
  },
  {
    "name": " Altona",
    "address": "Pier St & Queen St, Altona, VIC 3018",
    "lat": -37.868963,
    "lng": 144.830509
  },
  {
    "name": " Mackay (caneland)",
    "address": "Mangrove Road & Victoria Street, Mackay, QLD 4740",
    "lat": -21.1388919,
    "lng": 149.1788259
  },
  {
    "name": " Revesby",
    "address": "20-30 Blamey Street, Revesby, NSW 2212",
    "lat": -33.9532926,
    "lng": 151.0148564
  },
  {
    "name": " Morningside",
    "address": "Wynnum Rd & Junction Rd, Morningside, QLD 4170",
    "lat": -27.4669063,
    "lng": 153.0784358
  },
  {
    "name": " Meadow Springs",
    "address": "Fremantle Rd & Meadow Springs Dr, Meadow Springs, WA 6210",
    "lat": -32.4926607,
    "lng": 115.748306
  },
  {
    "name": " Wyndham Village",
    "address": "Sayers Rd & Morris Rd, Tarneit, VIC 3030",
    "lat": -37.8505368,
    "lng": 144.7064071
  },
  {
    "name": " Alexander Heights",
    "address": "Mirrabooka Ave & Griffon Way, Alexander Heights, WA 6064",
    "lat": -31.8312436,
    "lng": 115.8529703
  },
  {
    "name": " Ingham",
    "address": "Lannercost St & Mcilwraith St, Ingham, QLD 4850",
    "lat": -18.6512278,
    "lng": 146.1533557
  },
  {
    "name": " Indooroopilly",
    "address": "Moggill Rd, Indooroopilly, QLD 4068",
    "lat": -27.498642,
    "lng": 152.972138
  },
  {
    "name": " Armadale",
    "address": "Jull St, Armadale, WA 6112",
    "lat": -32.1505895,
    "lng": 116.017648
  },
  {
    "name": " Melville",
    "address": "388 Canning Hwy, Bicton, WA 6157",
    "lat": -32.0338328,
    "lng": 115.7911471
  },
  {
    "name": " Australind",
    "address": "Old Coast Rd & Paris Rd, Australind, WA 6233",
    "lat": -33.2788925,
    "lng": 115.7146081
  },
  {
    "name": " Narrogin",
    "address": "Earl St & Ensign St, Narrogin, WA 6312",
    "lat": -32.9322272,
    "lng": 117.1763936
  },
  {
    "name": " Northam",
    "address": "10 Beamish Ave, Northam, WA 6401",
    "lat": -31.65778,
    "lng": 116.67049
  },
  {
    "name": " Beechboro",
    "address": "Beechboro Rd & Benara Rd, Beechboro, WA 6063",
    "lat": -31.8754566,
    "lng": 115.9249061
  },
  {
    "name": " Mirrabooka",
    "address": "Yirrigan Dr & Farrier Rd, Mirrabooka, WA 6061",
    "lat": -31.8735486,
    "lng": 115.8607866
  },
  {
    "name": " Mosman Park",
    "address": "50 Harvey St, Mosman Park, WA 6012",
    "lat": -32.0086854,
    "lng": 115.7617667
  },
  {
    "name": " Port Macquarie",
    "address": "28 Hayward St, Port Macquarie, NSW 2444",
    "lat": -31.4338254,
    "lng": 152.9073022
  },
  {
    "name": " Mundaring",
    "address": "Great Eastern Hwy & Stoneville Rd, Mundaring, WA 6073",
    "lat": -31.9021438,
    "lng": 116.1681176
  },
  {
    "name": " North Armadale",
    "address": "Champion Dr & Seville Dr, Armadale, WA 6112",
    "lat": -32.1300829,
    "lng": 116.0009015
  },
  {
    "name": " Rouse Hill",
    "address": "Windsor Rd & Commercial Rd, Rouse Hill, NSW 2155",
    "lat": -33.6877101,
    "lng": 150.9197803
  },
  {
    "name": " Firle",
    "address": "Cnr Glynburn Rd & Shelley St, Firle, SA 5070",
    "lat": -34.90586280000001,
    "lng": 138.6577429
  },
  {
    "name": " Penrith",
    "address": "Station St & Reserve St, Penrith, NSW 2750",
    "lat": -33.7557561,
    "lng": 150.6928508
  },
  {
    "name": " Noranda Square",
    "address": "Benara Rd & Mcgilvray Ave, Noranda, WA 6062",
    "lat": -31.875398,
    "lng": 115.8967569
  },
  {
    "name": " North Perth",
    "address": "Fitzgerald St & View St, North Perth, WA 6006",
    "lat": -31.9317347,
    "lng": 115.8592251
  },
  {
    "name": " Gawler Green",
    "address": "4 Tulloch St, Evanston Gardens, SA 5118",
    "lat": -34.6193269,
    "lng": 138.7406362
  },
  {
    "name": " Pinjarra",
    "address": "George St & James St, Pinjarra, WA 6208",
    "lat": -32.6285203,
    "lng": 115.8750542
  },
  {
    "name": " Old Bar",
    "address": "54 Old Bar Rd, Old Bar, NSW 2430",
    "lat": -31.9693227,
    "lng": 152.5838706
  },
  {
    "name": " Rutherford",
    "address": "Arthur St & East Mall, Rutherford, NSW 2320",
    "lat": -32.7171799,
    "lng": 151.527898
  },
  {
    "name": " Aberfoyle Park",
    "address": "Hub Drive, Aberfoyle Park, SA 5159"
  },
  {
    "name": " Port Pirie",
    "address": "Grey Terrace, Port Pirie, SA 5540"
  },
  {
    "name": " Prospect",
    "address": "Prospect Rd & Staples Ct, Prospect, SA 5082"
  },
  {
    "name": " Reynella",
    "address": "Cnr Sherriffs & Hillier Rds, Morphett Vale, SA 5162"
  },
  {
    "name": " Ocean Shores",
    "address": "Rajah Rd, Ocean Shores, NSW 2483",
    "lat": -28.5271408,
    "lng": 153.5444582
  },
  {
    "name": " Parramatta North",
    "address": "20 Victoria Rd (cnr Church St), Parramatta, NSW 2150",
    "lat": -33.8085892,
    "lng": 151.0053747
  },
  {
    "name": " Orange",
    "address": "Anson St & Byng St, Orange, NSW 2800",
    "lat": -33.282508,
    "lng": 149.0997949
  },
  {
    "name": " The Willows",
    "address": "Thuringowa Drv & Hervey Range Rd, Kirwan, QLD 4817",
    "lat": -19.317192,
    "lng": 146.7286626
  },
  {
    "name": " Doncaster",
    "address": "Williamsons Rd & Doncaster Rd, Doncaster, VIC 3108",
    "lat": -37.7874702,
    "lng": 145.1249885
  },
  {
    "name": " Armidale",
    "address": "Dumaresq St & Marsh St, Armidale, NSW 2350",
    "lat": -30.513565,
    "lng": 151.67074
  },
  {
    "name": " Campbellfield",
    "address": "Cnr Sydney & Mahoneys Rds, Campbellfield, VIC 3061",
    "lat": -37.6895133,
    "lng": 144.958006
  },
  {
    "name": " Chirnside Park",
    "address": "Maroondah Hwy, Chirnside Park, VIC 3116",
    "lat": -37.7591469,
    "lng": 145.3194348
  },
  {
    "name": " Welland",
    "address": "522-530 Port Rd, Welland, SA 5007",
    "lat": -34.896146,
    "lng": 138.5573861
  },
  {
    "name": " Bridgewater",
    "address": "Covehill Rd, Bridgewater, TAS 7030",
    "lat": -42.7348756,
    "lng": 147.2528888
  },
  {
    "name": " Whyalla",
    "address": "Mcdouall Stuart & Nicholson Ave, Whyalla Norrie, SA 5608",
    "lat": -33.0281007,
    "lng": 137.5317866
  },
  {
    "name": " Nerang",
    "address": "Station St & Cayuga Rd, Nerang, QLD 4211",
    "lat": -27.9988921,
    "lng": 153.3389864
  },
  {
    "name": " The Entrance",
    "address": "The Entrance Rd & Dening St, The Entrance, NSW 2261",
    "lat": -33.3446779,
    "lng": 151.4963998
  },
  {
    "name": " Tenterfield",
    "address": "Rouse St & Miles St, Tenterfield, NSW 2372",
    "lat": -29.05739419999999,
    "lng": 152.018448
  },
  {
    "name": " Tea Gardens",
    "address": "Myall Rd, Tea Gardens, NSW 2324",
    "lat": -32.6208405,
    "lng": 152.1181319
  },
  {
    "name": " Kingston",
    "address": "John St & Channel Hwy, Kingston, TAS 7050",
    "lat": -42.9756888,
    "lng": 147.3090858
  },
  {
    "name": " Meadow Mews",
    "address": "102 Hobart Rd, Kings Meadows, TAS 7249",
    "lat": -41.4669569,
    "lng": 147.1589003
  },
  {
    "name": " Launceston (racecourse)",
    "address": "15 Racecourse Cres, Launceston, TAS 7250",
    "lat": -41.4289086,
    "lng": 147.1484239
  },
  {
    "name": " Byford",
    "address": "20 Abernethy Rd, Byford, WA 6122",
    "lat": -32.21984980000001,
    "lng": 116.0068457
  },
  {
    "name": " West Gosford",
    "address": "Brisbane Water Drive, West Gosford, NSW 2250",
    "lat": -33.4306273,
    "lng": 151.3163251
  },
  {
    "name": " Victor Harbor",
    "address": "Torrens Rd & Seaview Rd, Victor Harbor, SA 5211",
    "lat": -35.552175,
    "lng": 138.622391
  },
  {
    "name": " Grafton",
    "address": "King St & Pound St, Grafton, NSW 2460",
    "lat": -29.6887807,
    "lng": 152.9335321
  },
  {
    "name": " Sandy Bay",
    "address": "246 Sandy Bay Rd, Sandy Bay, TAS 7005",
    "lat": -42.8961194,
    "lng": 147.3286642
  },
  {
    "name": " Bradshaw St",
    "address": "Cnr Dripstone & Trower Roads, Casuarina, NT 0810",
    "lat": -12.3775136,
    "lng": 130.8821298
  },
  {
    "name": " Altona Gate",
    "address": "Millers Rd & Duosa Rd, Altona North, VIC 3025",
    "lat": -37.8271021,
    "lng": 144.8490107
  },
  {
    "name": " Unley",
    "address": "204 Unley Rd, Unley, SA 5061",
    "lat": -34.9508537,
    "lng": 138.6055348
  },
  {
    "name": " Warradale",
    "address": "238 Diagonal Rd, Warradale, SA 5046",
    "lat": -35.0086936,
    "lng": 138.5395012
  },
  {
    "name": " Tea Tree Plaza",
    "address": "976 North East Rd, Modbury, SA 5092",
    "lat": -34.831251,
    "lng": 138.6917617
  },
  {
    "name": " The Pines",
    "address": "Guineas Ck Rd & Kp Mcgrath Drv, Elanora, QLD 4221",
    "lat": -28.1344481,
    "lng": 153.4686191
  },
  {
    "name": " St Agnes",
    "address": "1244 North East Rd, St Agnes, SA 5097",
    "lat": -34.8214655,
    "lng": 138.7157141
  },
  {
    "name": " Essendon",
    "address": "1144 - 1146 Mt Alexander Rd, Essendon, VIC 3040",
    "lat": -37.743725,
    "lng": 144.910688
  },
  {
    "name": " Drouin",
    "address": "Young St & Hope St, Drouin, VIC 3818",
    "lat": -38.1344339,
    "lng": 145.8566004
  },
  {
    "name": " Endeavour Hills",
    "address": "Matthew Flinders Av & Heatherton Rd, Endeavour Hills, VIC 3802",
    "lat": -37.9750092,
    "lng": 145.258218
  },
  {
    "name": " Diamond Creek",
    "address": "67 Main Hurstbridge Rd, Diamond Creek, VIC 3089",
    "lat": -37.6736675,
    "lng": 145.1597294
  },
  {
    "name": " Forest Hill",
    "address": "Mahoneys Rd & Canterbury Rd, Forest Hill, VIC 3131",
    "lat": -37.8341559,
    "lng": 145.1665347
  },
  {
    "name": " Derrimut Village",
    "address": "Mt Derrimut Rd & Foleys Rd, Deer Park, VIC 3023",
    "lat": -37.7829219,
    "lng": 144.7728657
  },
  {
    "name": " Ferntree Gully",
    "address": "Ferntree Gully Rd & Burwood Hwy, Ferntree Gully, VIC 3156",
    "lat": -37.8827234,
    "lng": 145.277328
  },
  {
    "name": " Cranbourne",
    "address": "High Street, Cranbourne, VIC 3977",
    "lat": -38.1056445,
    "lng": 145.2820273
  },
  {
    "name": " Craigieburn",
    "address": "Craigieburn Rd & Windrock Av, Craigieburn, VIC 3064",
    "lat": -37.5920602,
    "lng": 144.91522
  },
  {
    "name": " Cowes",
    "address": "Cnr Church St & Thompson St, Cowes, VIC 3922",
    "lat": -38.45269649999999,
    "lng": 145.2384752
  },
  {
    "name": " Bairnsdale",
    "address": "96-118 Main St, Bairnsdale, VIC 3875",
    "lat": -37.8251413,
    "lng": 147.6326863
  },
  {
    "name": " Balaclava",
    "address": "Camden St & Alfred St, Balaclava, VIC 3183",
    "lat": -37.8675746,
    "lng": 144.9916802
  },
  {
    "name": " Bacchus Marsh",
    "address": "Main St & Young St, Bacchus Marsh, VIC 3340",
    "lat": -37.6762492,
    "lng": 144.4406627
  },
  {
    "name": " Corio",
    "address": "Bacchus Marsh Rd & Purnell Rd, Corio, VIC 3214",
    "lat": -38.0741525,
    "lng": 144.358567
  },
  {
    "name": " Willowdale",
    "address": "5 Willowdale Drive, Denham Court, NSW 2179",
    "lat": -33.9771421,
    "lng": 150.8120259
  },
  {
    "name": " Sth Muswellbrook",
    "address": "19 - 29 Rutherford Rd, Muswellbrook South, NSW 2333",
    "lat": -32.2826454,
    "lng": 150.8963883
  },
  {
    "name": " Taree Manning Mall",
    "address": "Macquarie St & Manning St, Taree, NSW 2430",
    "lat": -31.9109076,
    "lng": 152.4626606
  },
  {
    "name": " Tamworth",
    "address": "Peel St & White St, Tamworth, NSW 2340",
    "lat": -31.0930562,
    "lng": 150.9323286
  },
  {
    "name": " Dernancourt",
    "address": "Lower North East Rd, Dernancourt, SA 5075",
    "lat": -34.8667746,
    "lng": 138.6783094
  },
  {
    "name": " Kincumber",
    "address": "Avoca Drive, Kincumber, NSW 2251",
    "lat": -33.4648145,
    "lng": 151.4000735
  },
  {
    "name": " Kurri Kurri",
    "address": "259 - 277 Lang St, Kurri Kurri, NSW 2327",
    "lat": -32.8200479,
    "lng": 151.4778546
  },
  {
    "name": " Reservoir",
    "address": "323-325 Spring St, Reservoir, VIC 3073",
    "lat": -37.7145439,
    "lng": 145.0072291
  },
  {
    "name": " Richmond Icon",
    "address": "150 Swan St, Cremorne, VIC 3121",
    "lat": -37.825572,
    "lng": 144.9946713
  },
  {
    "name": " Ocean Grove",
    "address": "77 The Terrace, Ocean Grove, VIC 3226",
    "lat": -38.2674812,
    "lng": 144.5239088
  },
  {
    "name": " Traralgon",
    "address": "Franklin St & Grey St, Traralgon, VIC 3844",
    "lat": -38.1942147,
    "lng": 146.5400289
  },
  {
    "name": " Busselton",
    "address": "69 Prince St, Busselton, WA 6280",
    "lat": -33.6502382,
    "lng": 115.3465047
  },
  {
    "name": " Surry Hills",
    "address": "Cleveland St & Baptist St, Redfern, NSW 2016",
    "lat": -33.8915132,
    "lng": 151.2126337
  },
  {
    "name": " Christies Beach",
    "address": "101 Beach Rd, Christies Beach, SA 5165",
    "lat": -35.1382845,
    "lng": 138.4813029
  },
  {
    "name": " Ringwood",
    "address": "Maroondah Hwy & New Street, Ringwood, VIC 3134",
    "lat": -37.8169615,
    "lng": 145.2204683
  },
  {
    "name": " Tanilba Bay",
    "address": "67 Beatty Blvd, Tanilba Bay, NSW 2319",
    "lat": -32.73565749999999,
    "lng": 152.0000654
  },
  {
    "name": " New Farm",
    "address": "85 Merthyr Rd, New Farm, QLD 4005",
    "lat": -27.4667911,
    "lng": 153.0468611
  },
  {
    "name": " Noosa",
    "address": "Lanyana Way, Noosa Heads, QLD 4567",
    "lat": -26.3987528,
    "lng": 153.0909536
  },
  {
    "name": " Nerang Fair",
    "address": "74 - 98  Beaudesert-Nerang Rd, Nerang, QLD 4211",
    "lat": -27.9937454,
    "lng": 153.3322166
  },
  {
    "name": " Silkstone Village",
    "address": "Blackstone Road & Grange Road, Bremer, QLD 4304",
    "lat": -27.6209429,
    "lng": 152.7802878
  },
  {
    "name": " Rockhampton North",
    "address": "249 Musgrave St, Rockhampton, QLD 4701",
    "lat": -23.3573248,
    "lng": 150.5236782
  },
  {
    "name": " Peregian Springs",
    "address": "1 Ridgeview Dr, Peregian Springs, QLD 4573",
    "lat": -26.497031,
    "lng": 153.0792417
  },
  {
    "name": " Petrie Terrace",
    "address": "Petrie Tce, Petrie Terrace, QLD 4000",
    "lat": -27.4629541,
    "lng": 153.0144854
  },
  {
    "name": " Pinelands",
    "address": "Beenleigh Rd & Pine Rd, Sunnybank Hills, QLD 4109",
    "lat": -27.5897934,
    "lng": 153.0608013
  },
  {
    "name": " Pacific Pines",
    "address": "Norris Street, Pacific Pines, QLD 4211",
    "lat": -27.9256052,
    "lng": 153.3062682
  },
  {
    "name": " Park Ridge",
    "address": "Mount Lindsey Highway And Park Ridge Rd, Park Ridge, QLD 4118",
    "lat": -27.6994899,
    "lng": 153.0377093
  },
  {
    "name": " North Lakes",
    "address": "North Lakes Dr & Anzac Ave, North Lakes, QLD 4509",
    "lat": -27.2427899,
    "lng": 153.0207749
  },
  {
    "name": " Rode",
    "address": "261 Appleby Rd, Stafford Heights, QLD 4053",
    "lat": -27.3925411,
    "lng": 153.0119065
  },
  {
    "name": " Robina",
    "address": "Robina Town Centre Drive, Robina, QLD 4230",
    "lat": -28.0733572,
    "lng": 153.3781627
  },
  {
    "name": " Rising Sun",
    "address": "Ross River Rd & Cross St, Townsville, QLD 4812",
    "lat": -19.292665,
    "lng": 146.7941569
  },
  {
    "name": " Queen Street Cbd",
    "address": "Queen St & Edward St, Brisbane, QLD 4000",
    "lat": -27.468366,
    "lng": 153.0269755
  },
  {
    "name": " Redbank",
    "address": "1 Collingwood Park Drv, Redbank, QLD 4301",
    "lat": -27.605516,
    "lng": 152.8678135
  },
  {
    "name": " Rockhampton South",
    "address": "Fitzroy St & Bolsover St, Rockhampton, QLD 4700",
    "lat": -23.3771689,
    "lng": 150.5110203
  },
  {
    "name": " Pacific Fair",
    "address": "Hooker Blvd, Broadbeach Waters, QLD 4218",
    "lat": -28.0357117,
    "lng": 153.4201024
  },
  {
    "name": " Redcliffe",
    "address": "Cnr Ashmole Rd & Klingner Rd, Redcliffe, QLD 4021",
    "lat": -27.2198208,
    "lng": 153.0969822
  },
  {
    "name": " Sunnybank Hills",
    "address": "Compton Rd & Calam Rd, Sunnybank Hills, QLD 4109",
    "lat": -27.6113434,
    "lng": 153.0543822
  },
  {
    "name": " Pelican Waters",
    "address": "Pelican Waters Blvd, Pelican Waters, QLD 4551",
    "lat": -26.8232158,
    "lng": 153.1088913
  },
  {
    "name": " Redbank Plains",
    "address": "393 Redbank Plains Rd, Redbank Plains, QLD 4301",
    "lat": -27.6451802,
    "lng": 152.8685857
  },
  {
    "name": " Taigum",
    "address": "312 & 320 Roghan Rd, Taigum, QLD 4018",
    "lat": -27.342327,
    "lng": 153.0427546
  },
  {
    "name": " Surfers Paradise",
    "address": "Gold Coast Hwy & Elkhorn Ave, Surfers Paradise, QLD 4217",
    "lat": -27.9986848,
    "lng": 153.4270932
  },
  {
    "name": " The Gap",
    "address": "1000 Waterworks Rd, The Gap, QLD 4061",
    "lat": -27.445998,
    "lng": 152.9524049
  },
  {
    "name": " Strathpine",
    "address": "Gympie Rd, Strathpine, QLD 4500",
    "lat": -27.3037159,
    "lng": 152.9890457
  },
  {
    "name": " Sydney Street",
    "address": "78 Sydney St, Mackay, QLD 4740",
    "lat": -21.1439568,
    "lng": 149.1875
  },
  {
    "name": " Tannum Sands",
    "address": "Hampton Drv & Booth Ave, Tannum Sands, QLD 4680",
    "lat": -23.9458363,
    "lng": 151.3627207
  },
  {
    "name": " Runaway Bay",
    "address": "Lae Drv & Morala Av, Runaway Bay, QLD 4216",
    "lat": -27.912864,
    "lng": 153.39896
  },
  {
    "name": " Port Douglas",
    "address": "11 - 17 Macrossan St, Port Douglas, QLD 4877",
    "lat": -16.4820856,
    "lng": 145.4628533
  },
  {
    "name": " Palm Beach",
    "address": "Gold Coast Hwy & Fourth Ave, Palm Beach, QLD 4221",
    "lat": -28.1224874,
    "lng": 153.4736523
  },
  {
    "name": " Sunnybank",
    "address": "Mains Rd & Mccullough St, Sunnybank, QLD 4109",
    "lat": -27.5719751,
    "lng": 153.064175
  },
  {
    "name": " Redlynch",
    "address": "Connection Road, Redlynch, QLD 4870",
    "lat": -16.896002,
    "lng": 145.700088
  }
]