[
  {
    "name": "York (Metro)",
    "address": "65 York Street,Sydney",
    "lat": -33.8679232,
    "lng": 151.2057364
  },
  {
    "name": "Woolloomooloo (Metro)",
    "address": "75 Crown Street,East Sydney",
    "lat": -33.873698,
    "lng": 151.2159635
  },
  {
    "name": "Balmain",
    "address": "276 Darling Street,Balmain",
    "lat": -33.8578825,
    "lng": 151.1811962
  },
  {
    "name": "Haymarket",
    "address": "61-79 Quay Street,Haymarket",
    "lat": -33.8812571,
    "lng": 151.2025955
  },
  {
    "name": "Double Bay",
    "address": "Kiaora Lane and Kiaora Road,Double Bay",
    "lat": -33.8775912,
    "lng": 151.244792
  },
  {
    "name": "Woolworths Green Square Town C",
    "address": "20 - 26 Ebsworth Street,Zetland",
    "lat": -33.9053347,
    "lng": 151.2041491
  },
  {
    "name": "Leichhardt Marketplace",
    "address": "Leichhardt Market Place, 100/122-138 Flood Street,Leichhardt",
    "lat": -33.8850694,
    "lng": 151.1490066
  },
  {
    "name": "Marrickville Metro",
    "address": "Marrickville Shopping Centre, 34 Victoria Road,Marrickville",
    "lat": -33.9067636,
    "lng": 151.1718231
  },
  {
    "name": "333 George Street (Metro)",
    "address": "333 George Street,Sydney",
    "lat": -33.8668138,
    "lng": 151.2068747
  },
  {
    "name": "Northbridge",
    "address": "79-113 Sailors Bay Road,Northbridge",
    "lat": -33.8101145,
    "lng": 151.2088161
  },
  {
    "name": "Bondi Junction",
    "address": "Westfield Shopping Centre, 530 Oxford Street,Bondi Junction",
    "lat": -33.8922006,
    "lng": 151.2506925
  },
  {
    "name": "Mascot",
    "address": "55 Church Avenue,Mascot",
    "lat": -33.9225713,
    "lng": 151.1860844
  },
  {
    "name": "Boronia Park",
    "address": "130 Pittwater Road,Boronia Park",
    "lat": -33.8220677,
    "lng": 151.1338221
  },
  {
    "name": "Chatswood Rail",
    "address": "Shop 55 Chatswood Rail Interchange,Chatswood",
    "lat": -33.797293,
    "lng": 151.18142
  },
  {
    "name": "Randwick",
    "address": "73 Belmore Road,Randwick",
    "lat": -33.9148363,
    "lng": 151.2404833
  },
  {
    "name": "Marrickville",
    "address": "463 Illawarra Road,Marrickville",
    "lat": -33.9165643,
    "lng": 151.1503665
  },
  {
    "name": "Woolworths Alexandria",
    "address": "10 Fountain Street,Alexandria",
    "lat": -33.9023895,
    "lng": 151.1946724
  },
  {
    "name": "Town Hall",
    "address": "Cnr Park & George Street,Sydney",
    "lat": -33.8729583,
    "lng": 151.207043
  },
  {
    "name": "Bondi Beach (Metro)",
    "address": "184 Campbell Parade,Bondi Beach",
    "lat": -33.889104,
    "lng": 151.2756744
  },
  {
    "name": "Woolworths Lakemba",
    "address": "2 - 26 Haldon Street,Lakemba",
    "lat": -33.9181101,
    "lng": 151.0759789
  },
  {
    "name": "Burwood Plaza",
    "address": "Burwood Plaza Shopping Centre, 42-50 Railway Parade,Burwood",
    "lat": -33.87754,
    "lng": 151.1024019
  },
  {
    "name": "Ashfield",
    "address": "260A Liverpool Road,Ashfield",
    "lat": -33.88906550000001,
    "lng": 151.1233143
  },
  {
    "name": "Padstow (Metro)",
    "address": "5 Faraday Road,Padstow",
    "lat": -33.9538696,
    "lng": 151.0343088
  },
  {
    "name": "Thornleigh",
    "address": "261 Pennant Hills Road,Thornleigh",
    "lat": -33.731185,
    "lng": 151.0813223
  },
  {
    "name": "Roselands Food For Less",
    "address": "Roseland Shopping Centre, Roselands Drive,Roselands",
    "lat": -33.9357743,
    "lng": 151.0686045
  },
  {
    "name": "Kingsgrove",
    "address": "Mashman Ave,Kingsgrove",
    "lat": -33.9412345,
    "lng": 151.1006841
  },
  {
    "name": "Hurstville",
    "address": "Cnr Park & Cross Streets,Hurstville",
    "lat": -33.9654699,
    "lng": 151.1050833
  },
  {
    "name": "Burwood",
    "address": "Shop 6, Level 3, Westfield Shopping Centre, 100 Burwood Road,Burwood",
    "lat": -33.8746207,
    "lng": 151.1057492
  },
  {
    "name": "Eastgardens",
    "address": "Eastgardens Shopping Centre, 152 Bunnerong Road,Pagewood",
    "lat": -33.9448563,
    "lng": 151.2243306
  },
  {
    "name": "Strathfield",
    "address": "Shop 19, Strathfield Plaza, 11 The Boulevard,Strathfield",
    "lat": -33.87303199999999,
    "lng": 151.093171
  },
  {
    "name": "Jannali",
    "address": "555 Box Road,Jannali",
    "lat": -34.015919,
    "lng": 151.0655586
  },
  {
    "name": "Miranda",
    "address": "600 The Kingsway,Miranda",
    "lat": -34.0351627,
    "lng": 151.1004069
  },
  {
    "name": "Wentworthville",
    "address": "326-336 Great Western Hwy,Wentworthville",
    "lat": -33.8153064,
    "lng": 150.9717037
  },
  {
    "name": "Granville",
    "address": "6 Louis Street,Granville",
    "lat": -33.8417551,
    "lng": 151.0092044
  },
  {
    "name": "Caringbah",
    "address": "58 President Ave,Caringbah",
    "lat": -34.0425793,
    "lng": 151.1186726
  },
  {
    "name": "Frenchs Forest",
    "address": "Forestway Shopping Centre, Cnr Russell Avenue And Forest Way,Frenchs Forest",
    "lat": -33.7507296,
    "lng": 151.2248434
  },
  {
    "name": "West Pennant Hills (Metro)",
    "address": "Shop 12, 35 Coonara Avenue,West Pennant Hills",
    "lat": -33.7452024,
    "lng": 151.0303064
  },
  {
    "name": "Fairfield",
    "address": "Neeta City Shopping Centre, 1-29 Court Street,Fairfield",
    "lat": -33.868879,
    "lng": 150.956444
  },
  {
    "name": "Tahmoor",
    "address": "Cnr Rememberance Drive And Thirlmere Way,Tahmoor",
    "lat": -34.2224839,
    "lng": 150.5932965
  },
  {
    "name": "Eastlakes",
    "address": "Shop 10, Bkk Shopping Centre, Evans Avenue,Eastlakes",
    "lat": -33.92573960000001,
    "lng": 151.2115599
  },
  {
    "name": "Marsfield",
    "address": "Cnr Epping And Balaclava Roads,Marsfield",
    "lat": -33.7777197,
    "lng": 151.1081211
  },
  {
    "name": "North Sydney Metro",
    "address": "100 Miller St,North Sydney",
    "lat": -33.8378548,
    "lng": 151.206647
  },
  {
    "name": "Bowral",
    "address": "380 Bong Bong Road,Bowral",
    "lat": -34.4812817,
    "lng": 150.4179183
  },
  {
    "name": "Kiama",
    "address": "Kiama View Shopping Centre, 143 Terralong Street,Kiama",
    "lat": -34.6668348,
    "lng": 150.8501228
  },
  {
    "name": "Lake Munmorah",
    "address": "1 Tall Timbers Road,Lake Munmorah",
    "lat": -33.1882039,
    "lng": 151.5590467
  },
  {
    "name": "Central (Metro)",
    "address": "302-306 Elizabeth Street,Surry Hills",
    "lat": -33.8837079,
    "lng": 151.2085498
  },
  {
    "name": "Glenrose",
    "address": "56 - 58 Glen Street,Belrose",
    "lat": -33.7393753,
    "lng": 151.2097008
  },
  {
    "name": "Dee Why",
    "address": "33 Oaks Avenue,Dee Why",
    "lat": -33.7525275,
    "lng": 151.2890328
  },
  {
    "name": "Eastwood",
    "address": "Eastwood Centre, 160 Rowe Street,Eastwood",
    "lat": -33.7923595,
    "lng": 151.0808544
  },
  {
    "name": "Kogarah",
    "address": "Kogarah Town Centre, Railway Parade,Kogarah",
    "lat": -33.96212939999999,
    "lng": 151.1326966
  },
  {
    "name": "Wolli Creek",
    "address": "78-96 Arncliffe Street,Wolli Creek",
    "lat": -33.9305259,
    "lng": 151.1540433
  },
  {
    "name": "Woolworths Kellyville North",
    "address": "Cnr Withers & Hezlett Roads,Kellyville North",
    "lat": -33.6852221,
    "lng": 150.952556
  },
  {
    "name": "Central Park",
    "address": "26-60 Broadway,Chippendale",
    "lat": -33.8851983,
    "lng": 151.2009775
  },
  {
    "name": "Erskineville (Metro)",
    "address": "21-23 Erskineville Road,Newtown",
    "lat": -33.898603,
    "lng": 151.1816703
  },
  {
    "name": "Neutral Bay",
    "address": "43-51 Grosvenor Street,Neutral Bay",
    "lat": -33.8305206,
    "lng": 151.2225015
  },
  {
    "name": "Ermington",
    "address": "30 Betty Cuthbert Avenue,Ermington",
    "lat": -33.814639,
    "lng": 151.054459
  },
  {
    "name": "Redfern",
    "address": "261-265 Chalmers Street,Redfern",
    "lat": -33.8946351,
    "lng": 151.2046805
  },
  {
    "name": "Liverpool",
    "address": "Westfield Shopping Centre, Cnr Campbell & Northumberland Street,Liverpool",
    "lat": -33.919841,
    "lng": 150.923191
  },
  {
    "name": "Crows Nest",
    "address": "10 Falcon Street,Crows Nest",
    "lat": -33.8272798,
    "lng": 151.2017211
  },
  {
    "name": "Carnes Hill",
    "address": "245 Cowpasture Road,Carnes Hill",
    "lat": -33.9372414,
    "lng": 150.8454951
  },
  {
    "name": "The Ponds",
    "address": "Cnr Riverbank Drive and The Ponds Boulevard,The Ponds",
    "lat": -33.7057703,
    "lng": 150.9126138
  },
  {
    "name": "Paddington (Metro)",
    "address": "220 Glenmore Rd,Paddington",
    "lat": -33.8819446,
    "lng": 151.2277929
  },
  {
    "name": "Surry Hills (Metro)",
    "address": "413-417 Bourke Street,Surry Hills",
    "lat": -33.8832486,
    "lng": 151.2160324
  },
  {
    "name": "Cherrybrook Village",
    "address": "Shop 17, Cherrybrook Village, 41-47 Shepherds Drive,Cherrybrook",
    "lat": -33.720569,
    "lng": 151.044445
  },
  {
    "name": "Rosehill",
    "address": "28-30 Oak Street,Rosehill",
    "lat": -33.8197484,
    "lng": 151.0203353
  },
  {
    "name": "Woolworths Beecroft",
    "address": "Corner of Hannah Street and Beecroft Road,Beecroft",
    "lat": -33.7494927,
    "lng": 151.0645324
  },
  {
    "name": "Cecil Hills",
    "address": "Cnr Sandringham Drive And Fedore Road,Cecil Hills",
    "lat": -33.887168,
    "lng": 150.8486307
  },
  {
    "name": "Gordon",
    "address": "802-808 Pacific Highway,Gordon",
    "lat": -33.7550889,
    "lng": 151.1520923
  },
  {
    "name": "Green Valley",
    "address": "The Valley Plaza, 187 Wilson Road,Hinchinbrook",
    "lat": -33.9073647,
    "lng": 150.8672119
  },
  {
    "name": "Potts Point (Metro)",
    "address": "Icon Building, 81 Macleay Street,Potts Point",
    "lat": -33.8702343,
    "lng": 151.2252478
  },
  {
    "name": "Miller",
    "address": "Miller Community Shopping Cente, Cartwright Avenue,Miller",
    "lat": -33.9190656,
    "lng": 150.8836326
  },
  {
    "name": "Blacktown",
    "address": "Westpoint Shopping Centre, 17 Patrick Street,Blacktown",
    "lat": -33.7703519,
    "lng": 150.9059427
  },
  {
    "name": "Bonnyrigg",
    "address": "100 Bonnyrigg Avenue,Bonnyrigg",
    "lat": -33.8866866,
    "lng": 150.8887568
  },
  {
    "name": "Macquarie Fields",
    "address": "Victoria Road and Brooks Street,Macquarie Fields",
    "lat": -33.9844164,
    "lng": 150.8904149
  },
  {
    "name": "Katoomba",
    "address": "Parke and Waratah Street,Katoomba",
    "lat": -33.7170125,
    "lng": 150.30929
  },
  {
    "name": "Cronulla",
    "address": "84-86 Cronulla Street,Cronulla",
    "lat": -34.0539432,
    "lng": 151.152612
  },
  {
    "name": "Chester Hill",
    "address": "Chester Square Shopping Centre, 1-13 Leicester Street,Chester Hill",
    "lat": -33.8824031,
    "lng": 151.0008372
  },
  {
    "name": "Baulkham Hills",
    "address": "375-383 Windsor Road,Baulkham Hills",
    "lat": -33.7592903,
    "lng": 150.9912313
  },
  {
    "name": "Chullora",
    "address": "355 Waterloo Road,Chullora",
    "lat": -33.8930485,
    "lng": 151.0614528
  },
  {
    "name": "Lidcombe",
    "address": "92 Parramatta Road,Lidcombe",
    "lat": -33.8492998,
    "lng": 151.0489549
  },
  {
    "name": "Mittagong West",
    "address": "197 Old Hume Highway,Mittagong West",
    "lat": -34.4468181,
    "lng": 150.4380486
  },
  {
    "name": "Rouse Hill",
    "address": "10-14 Market Lane,Rouse Hill",
    "lat": -33.6902787,
    "lng": 150.9238577
  },
  {
    "name": "Glenwood",
    "address": "60 Glenwood Park Drive,Glenwood",
    "lat": -33.7339255,
    "lng": 150.9282797
  },
  {
    "name": "Rose Bay (Metro)",
    "address": "757 New South Head Road,Rose Bay",
    "lat": -33.870738,
    "lng": 151.2684504
  },
  {
    "name": "Maroubra Beach",
    "address": "Maroubra Shopping Village, 3 Meagher Avenue,Maroubra",
    "lat": -33.9513759,
    "lng": 151.2496148
  },
  {
    "name": "Top Ryde",
    "address": "Cnr Devlin Street And Blaxland Road,Ryde",
    "lat": -33.8103586,
    "lng": 151.1060462
  },
  {
    "name": "Campsie",
    "address": "68-72 Evaline St,Campsie",
    "lat": -33.9139684,
    "lng": 151.1029119
  },
  {
    "name": "Macquarie Ryde",
    "address": "Macquarie Shopping Centre, Cnr Waterloo And Herring Roads,North Ryde",
    "lat": -33.7767518,
    "lng": 151.1205153
  },
  {
    "name": "Matraville",
    "address": "Bunnerong Road and Daunt Ave,Matraville",
    "lat": -33.957552,
    "lng": 151.2307916
  },
  {
    "name": "Bexley North (Metro)",
    "address": "216 Sarsfield Circuit,Bexley North",
    "lat": -33.9390454,
    "lng": 151.1149706
  },
  {
    "name": "Lane Cove",
    "address": "Cnr Longueville Road And Austin Street,Lane Cove",
    "lat": -33.8155681,
    "lng": 151.1700327
  },
  {
    "name": "Newington",
    "address": "1 Avenue Of Americas,Newington",
    "lat": -33.834006,
    "lng": 151.0564605
  },
  {
    "name": "Punchbowl",
    "address": "1-9 the Boulevard,Punchbowl",
    "lat": 37.7326535,
    "lng": -76.619562
  },
  {
    "name": "Warriewood",
    "address": "12 Jacksons Road,Warriewood",
    "lat": -33.697434,
    "lng": 151.2989841
  },
  {
    "name": "Revesby",
    "address": "60 Marco Avenue,Revesby",
    "lat": -33.951483,
    "lng": 151.0126769
  },
  {
    "name": "Penrith",
    "address": "569-589 High St,Penrith",
    "lat": -33.7506675,
    "lng": 150.6949542
  },
  {
    "name": "Woolworths Spring Farm",
    "address": "254 Richardson Rd,Spring Farm",
    "lat": -34.0699606,
    "lng": 150.728517
  },
  {
    "name": "Pendle Hill",
    "address": "109 Pendle Way,Pendle Hill",
    "lat": -33.8027524,
    "lng": 150.9556893
  },
  {
    "name": "Woolworths Cranebrook",
    "address": "80 - 98 Borrowdale Way,Cranebrook",
    "lat": -33.7199333,
    "lng": 150.710674
  },
  {
    "name": "Narellan",
    "address": "Narellan Town Centre, 326 Camden Valley Way,Narellan",
    "lat": -34.0428271,
    "lng": 150.7365895
  },
  {
    "name": "Swansea",
    "address": "18 Josephson Street,Swansea",
    "lat": -33.0869314,
    "lng": 151.6383281
  },
  {
    "name": "Gosford",
    "address": "40-46 William Street,Gosford",
    "lat": -33.4258594,
    "lng": 151.344002
  },
  {
    "name": "St Ives",
    "address": "St Ives Shopping Village, 166 Mona Vale Road,St Ives",
    "lat": -33.7297495,
    "lng": 151.1586872
  },
  {
    "name": "Berala",
    "address": "156 Woodburn Road,Berala",
    "lat": -33.8715143,
    "lng": 151.032241
  },
  {
    "name": "Winston Hills",
    "address": "Winston Hills Mall, 180 Caroline Chisholm Drive,Winston Hills",
    "lat": -33.7726449,
    "lng": 150.9694065
  },
  {
    "name": "Greystanes",
    "address": "665-669 Merrylands Road,Greystanes",
    "lat": -33.8288686,
    "lng": 150.9517343
  },
  {
    "name": "West Ryde",
    "address": "14 Anthony Road,West Ryde",
    "lat": -33.8067163,
    "lng": 151.0882279
  },
  {
    "name": "Mona Vale",
    "address": "25-29 Park Street,Mona Vale",
    "lat": -33.6755773,
    "lng": 151.3022829
  },
  {
    "name": "Mortdale",
    "address": "84D Roberts Avenue,Mortdale",
    "lat": -33.9686119,
    "lng": 151.0650582
  },
  {
    "name": "Riverwood",
    "address": "247 Belmore Road,Riverwood",
    "lat": -33.9525966,
    "lng": 151.0512577
  },
  {
    "name": "Auburn",
    "address": "Cnr Queen And Park Road,Auburn",
    "lat": -33.8515112,
    "lng": 151.0329187
  },
  {
    "name": "Bankstown",
    "address": "Centro Shopping Centre, Lady Cutler Avenue,Bankstown",
    "lat": -33.9151937,
    "lng": 151.0407328
  },
  {
    "name": "Hornsby",
    "address": "Westfield Shopping Centre, 236 Pacific Highway,Hornsby",
    "lat": -33.7049459,
    "lng": 151.100281
  },
  {
    "name": "Balgowlah",
    "address": "17-31 Roseberry Street,Balgowlah",
    "lat": -33.787629,
    "lng": 151.2673255
  },
  {
    "name": "Neutral Bay Village",
    "address": "1-7 Rangers Road,Neutral Bay",
    "lat": -33.8320691,
    "lng": 151.2235636
  },
  {
    "name": "Menai",
    "address": "Allison Crescent,Menai",
    "lat": -34.0139088,
    "lng": 151.0176113
  },
  {
    "name": "Canterbury",
    "address": "2A Charles Street,Canterbury",
    "lat": -33.9117647,
    "lng": 151.117883
  },
  {
    "name": "Pemulwuy",
    "address": "Cnr Greystanes Road & Butu Wargun Drive,Pemulwuy",
    "lat": -33.8176634,
    "lng": 150.9338066
  },
  {
    "name": "Kellyville",
    "address": "88 Wrights Road,Kellyville",
    "lat": -33.7131324,
    "lng": 150.970919
  },
  {
    "name": "Wetherill Park",
    "address": "Cnr Restwell Road & Polding st Prairewood,Wetherill Park",
    "lat": -33.8600748,
    "lng": 150.8976708
  },
  {
    "name": "Bulli",
    "address": "Cnr Princess Highway & Molloy Street,Bulli",
    "lat": -34.3365105,
    "lng": 150.9133035
  },
  {
    "name": "Glenmore Park",
    "address": "Cnr Town Terrace And Glenmore Parkway,Glenmore Park",
    "lat": -33.787917,
    "lng": 150.667957
  },
  {
    "name": "Hillsdale",
    "address": "South Point Shopping Centre, 238-262 Bunnerong Road,Hillsdale",
    "lat": -33.9521443,
    "lng": 151.2313211
  },
  {
    "name": "Emu Plains",
    "address": "Lennox Shopping Centre, Cnr Great Western Highway And Lawson Street,Emu Plains",
    "lat": -33.752755,
    "lng": 150.659035
  },
  {
    "name": "Carlingford",
    "address": "801-809 Pennant Hills Road,Carlingford",
    "lat": -33.7762288,
    "lng": 151.0523912
  },
  {
    "name": "Penrith South",
    "address": "Southlands Shopping Centre 2 Birmingham Road,South Penrith",
    "lat": -33.7742688,
    "lng": 150.6965658
  },
  {
    "name": "North Strathfield",
    "address": "145 Concord Road,North Strathfield",
    "lat": -33.8588127,
    "lng": 151.0927196
  },
  {
    "name": "Merrylands",
    "address": "209 Pitt Street,Merrylands",
    "lat": -33.835222,
    "lng": 150.9902912
  },
  {
    "name": "Bass Hill",
    "address": "753 Hume Highway, Bass Hill Plaza,Bass Hill",
    "lat": -33.899699,
    "lng": 150.99337
  },
  {
    "name": "Parramatta Westfield (Metro)",
    "address": "Shop 1156, L1 Westfield Parramatta, Parramatta NSW 2150,Parramatta",
    "lat": -33.817258,
    "lng": 151.0013383
  },
  {
    "name": "Narrabeen",
    "address": "12 Lagoon Street,Narrabeen",
    "lat": -33.7122772,
    "lng": 151.2983589
  },
  {
    "name": "Parramatta",
    "address": "171 Church Street,Parramatta",
    "lat": -33.8180961,
    "lng": 151.0030045
  },
  {
    "name": "Coogee",
    "address": "Coogee Bay Village, 184-196 Coogee Bay Road,Coogee",
    "lat": -33.9202358,
    "lng": 151.2540775
  },
  {
    "name": "Rockdale",
    "address": "Rockdale Plaza, 1 Rockdale Plaza Drive,Rockdale",
    "lat": -33.9577496,
    "lng": 151.1399434
  },
  {
    "name": "Warringah Mall (Brookvale)",
    "address": "Pittwater Road,Brookvale",
    "lat": -33.7639371,
    "lng": 151.2714793
  },
  {
    "name": "Sylvania",
    "address": "124 Princes Highway,Sylvania",
    "lat": -34.0103235,
    "lng": 151.104277
  },
  {
    "name": "Stoney Range (Shellharbour)",
    "address": "Stoney Range Centre, New Lake Entrance Road,Shellharbour",
    "lat": -34.5662428,
    "lng": 150.8301761
  },
  {
    "name": "Rosemeadow",
    "address": "Cnr Copperfield And Thomas Rose Drives,Rosemeadow",
    "lat": -34.10021589999999,
    "lng": 150.7979458
  },
  {
    "name": "Windsor",
    "address": "6-16 Kable Street,Windsor",
    "lat": -33.605167,
    "lng": 150.8216128
  },
  {
    "name": "Oran Park",
    "address": "Oran Park Drive and Peter Brock Drive,Oran Park",
    "lat": -34.0012415,
    "lng": 150.7395086
  },
  {
    "name": "Woy Woy",
    "address": "Peninsula Plaza, 63 Blackwall Road,Woy Woy",
    "lat": -33.4866011,
    "lng": 151.3256787
  },
  {
    "name": "Campbelltown Mall",
    "address": "271 Queen Street,Campbelltown",
    "lat": -34.0688552,
    "lng": 150.8108865
  },
  {
    "name": "Campbelltown",
    "address": "Macarthur Square Shopping Centre, Gilchrist Drive And Kellicar Road,Campbelltown",
    "lat": -34.074829,
    "lng": 150.797835
  },
  {
    "name": "Campbelltown Marketfair",
    "address": "Cnr Tindall Street And Kellicar And Narellan Roads,Campbelltown",
    "lat": -34.0715216,
    "lng": 150.8038481
  },
  {
    "name": "Eagle Vale",
    "address": "180 Gould Road,Eagle Vale",
    "lat": -34.0329387,
    "lng": 150.8166069
  },
  {
    "name": "St Marys",
    "address": "10 Charles Hackett Drive,St Marys",
    "lat": -33.7669836,
    "lng": 150.7704487
  },
  {
    "name": "Umina",
    "address": "Corner Of West And Trafalgar Street,Umina",
    "lat": -33.5133349,
    "lng": 151.322355
  },
  {
    "name": "Norwest (Circa Shopping Centre)",
    "address": "1 Circa Boulevarde,Bella Vista",
    "lat": -33.746431,
    "lng": 150.952098
  },
  {
    "name": "Emerton",
    "address": "Emerton Village Shopping Centre, Cnr Jersey Road And Bunting Street,Emerton",
    "lat": -33.7444492,
    "lng": 150.8094489
  },
  {
    "name": "Casula",
    "address": "607 Hume Highway,Casula",
    "lat": -33.9542602,
    "lng": 150.8969897
  },
  {
    "name": "Mt Druitt",
    "address": "49 Cnr Carlisle Ave and Luxford Road,Mt Druitt",
    "lat": -33.7641982,
    "lng": 150.8174586
  },
  {
    "name": "Minto",
    "address": "10 Brookfield Road,Minto",
    "lat": -34.0300411,
    "lng": 150.8499012
  },
  {
    "name": "Seven Hills",
    "address": "224 Prospect Highway,Seven Hills",
    "lat": -33.7752341,
    "lng": 150.9324464
  },
  {
    "name": "Dural",
    "address": "2 Allen Way,Round Corner",
    "lat": 43.5116275,
    "lng": -72.1209113
  },
  {
    "name": "Engadine",
    "address": "1031 Old Princes Highway,Engadine",
    "lat": -34.0641487,
    "lng": 151.0135701
  },
  {
    "name": "St Clair",
    "address": "155 Bennett Road,St Clair",
    "lat": -33.79492210000001,
    "lng": 150.7889334
  },
  {
    "name": "Toongabbie",
    "address": "17-19 Aurelia Street,Toongabbie",
    "lat": -33.7877299,
    "lng": 150.9493781
  },
  {
    "name": "Avalon",
    "address": "74 Old Barenjoey Road,Avalon",
    "lat": -33.6361603,
    "lng": 151.329861
  },
  {
    "name": "Prospect",
    "address": "360 Flushcombe Road,Prospect",
    "lat": -33.7961597,
    "lng": 150.9050546
  },
  {
    "name": "Kings Langley",
    "address": "125 James Cook Drive,Kings Langley",
    "lat": -33.7434872,
    "lng": 150.9230576
  },
  {
    "name": "Ingleburn",
    "address": "Ingleburn Town Centre, Cnr Nardoo & Norfolk Street,Ingleburn",
    "lat": -33.9993554,
    "lng": 150.8640047
  },
  {
    "name": "Plumpton",
    "address": "260 Jersey Road,Plumpton",
    "lat": -33.7459827,
    "lng": 150.8357299
  },
  {
    "name": "Fairfield Heights",
    "address": "186 The Boulevard,Fairfield Heights",
    "lat": -33.8638309,
    "lng": 150.9387891
  },
  {
    "name": "Bateau Bay",
    "address": "Charter Hall Square , 12 Bay Village Rd,Bateau Bay",
    "lat": -33.3747394,
    "lng": 151.4727247
  },
  {
    "name": "Richmond",
    "address": "Cnr Lennox & Paget Street,Richmond",
    "lat": -33.6018643,
    "lng": 150.7533862
  },
  {
    "name": "Erina",
    "address": "620-658 Terrigal Drive,Erina",
    "lat": -33.437213,
    "lng": 151.3923773
  },
  {
    "name": "Woolworths Greenway Village",
    "address": "Shop M1 799 Richmond Road,Colebee",
    "lat": -33.7248922,
    "lng": 150.8451972
  },
  {
    "name": "Camden",
    "address": "35 Oxley Street,Camden",
    "lat": -34.0539937,
    "lng": 150.6937516
  },
  {
    "name": "Dapto",
    "address": "75-87 Princes Highway,Dapto",
    "lat": -34.494877,
    "lng": 150.7951681
  },
  {
    "name": "Glenorie",
    "address": "936-938 Old Northern Road,Glenorie",
    "lat": -33.6014002,
    "lng": 151.0066578
  },
  {
    "name": "Marayong",
    "address": "Quakers Court, Cnr Falmouth And Quaker Roads,Marayong",
    "lat": -33.7404755,
    "lng": 150.8860363
  },
  {
    "name": "Unanderra",
    "address": "4-8 Tannery Street,Unanderra",
    "lat": -34.4553038,
    "lng": 150.8431049
  },
  {
    "name": "Figtree",
    "address": "19 Princes Highway,Figtree",
    "lat": -34.4364568,
    "lng": 150.86302
  },
  {
    "name": "Corrimal",
    "address": "Stockland Corrimal Shopping Centre, 270 Princes Highway,Corrimal",
    "lat": -34.37428999999999,
    "lng": 150.897597
  },
  {
    "name": "Tuggerah",
    "address": "50 Wyong Road,Tuggerah",
    "lat": -33.308841,
    "lng": 151.4120067
  },
  {
    "name": "Mt Annan",
    "address": "11-13 Main Street,Mt Annan",
    "lat": -34.0482989,
    "lng": 150.7590229
  },
  {
    "name": "Schofields",
    "address": "Railway Terrace and Pelican Road,Schofields",
    "lat": -33.7040018,
    "lng": 150.8755808
  },
  {
    "name": "Cabramatta",
    "address": "180 Railway Parade,Cabramatta",
    "lat": -33.893267,
    "lng": 150.9383902
  },
  {
    "name": "Wollongong",
    "address": "63 Burelli Street,Wollongong",
    "lat": -34.4269785,
    "lng": 150.8961036
  },
  {
    "name": "Jordan Springs",
    "address": "Cnr Lakeside Parade and Jordan Springs Boulevard,Jordan Springs",
    "lat": -33.7279494,
    "lng": 150.7258236
  },
  {
    "name": "Fairy Meadow",
    "address": "66 Princes Highway,Fairy Meadow",
    "lat": -34.3915651,
    "lng": 150.8938315
  },
  {
    "name": "Lisarow",
    "address": "Parsons Road,Lisarow",
    "lat": -33.38592020000001,
    "lng": 151.3661419
  },
  {
    "name": "Moorebank",
    "address": "Moorebank Shopping Village, 136 Stockton Avenue,Moorebank",
    "lat": -33.9333537,
    "lng": 150.9494746
  },
  {
    "name": "Lake Haven",
    "address": "Lake Haven Shopping, Centre Lake Haven Drive,Lake Haven",
    "lat": -33.2407055,
    "lng": 151.5038003
  },
  {
    "name": "Albion Park",
    "address": "Cnr Terry & Russell Street,Albion Park",
    "lat": -34.5726384,
    "lng": 150.7756018
  },
  {
    "name": "Stocklands Shellharbour",
    "address": "Shellharbour Stocklands Centre, Lake Entrance Rd,Shellharbour",
    "lat": -34.5641674,
    "lng": 150.8391368
  },
  {
    "name": "Leura",
    "address": "152-160 Leura Mall,Leura",
    "lat": -33.7134201,
    "lng": 150.3316013
  },
  {
    "name": "Warilla",
    "address": "43-57 Shellharbour Road,Warilla",
    "lat": -34.5468313,
    "lng": 150.8629907
  }
]